"project_id","project_location_id","precision_code","geoname_id","place_name","latitude","longitude","location_type_code","location_type_name","gazetteer_adm_code","gazetteer_adm_name","location_class","geographic_exactness"
"34474","34474_1905123","3","1905123","Đông Anh District","21.13519","105.8423","ADM2","second-order administrative division","6295630|6255147|VN|44|1905123","Earth|Asia|Vietnam|Thành Phố Hà Nội|Đông Anh District","1","1"
"34616","34616_1905124","3","1905124","Đống Đa District","21.01348","105.82679","ADM2","second-order administrative division","6295630|6255147|VN|44|1905124","Earth|Asia|Vietnam|Thành Phố Hà Nội|Đống Đa District","1","2"
"38832","38832_7910208","3","7910208","Abel Iturralde","-13.19785","-68.02663","ADM2","second-order administrative division","6295630|6255150|BO|04|7910208","Earth|South America|Bolivia|Departamento de La Paz|Abel Iturralde","1","1"
"32133","32133_9253754","3","9253754","Aoral","11.73667","104.06105","ADM2","second-order administrative division","6295630|6255147|KH|04|9253754","Earth|Asia|Cambodia|Kampong Speu|Aoral","1","1"
"34474","34474_8609068","3","8609068","Bình Xuyên District","21.30561","105.66225","ADM2","second-order administrative division","6295630|6255147|VN|86|8609068","Earth|Asia|Vietnam|Tỉnh Vĩnh Phúc|Bình Xuyên District","1","1"
"30615","30615_161288","3","161288","Bagamoyo District","-6.30757","38.46654","ADM2","second-order administrative division","6295630|6255146|TZ|02|161288","Earth|Africa|Tanzania|Pwani|Bagamoyo District","1","2"
"30602","30602_161288","3","161288","Bagamoyo District","-6.30757","38.46654","ADM2","second-order administrative division","6295630|6255146|TZ|02|161288","Earth|Africa|Tanzania|Pwani|Bagamoyo District","1","1"
"30597","30597_161288","3","161288","Bagamoyo District","-6.30757","38.46654","ADM2","second-order administrative division","6295630|6255146|TZ|02|161288","Earth|Africa|Tanzania|Pwani|Bagamoyo District","1","1"
"32146","32146_7647222","3","7647222","Baray","12.42","105.06","ADM2","second-order administrative division","6295630|6255147|KH|05|7647222","Earth|Asia|Cambodia|Kampong Thom|Baray","1","2"
"32128","32128_7647222","3","7647222","Baray","12.42","105.06","ADM2","second-order administrative division","6295630|6255147|KH|05|7647222","Earth|Asia|Cambodia|Kampong Thom|Baray","1","1"
"32252","32252_7647222","3","7647222","Baray","12.42","105.06","ADM2","second-order administrative division","6295630|6255147|KH|05|7647222","Earth|Asia|Cambodia|Kampong Thom|Baray","1","1"
"33064","33064_7647218","3","7647218","Baribour","12.43","104.47","ADM2","second-order administrative division","6295630|6255147|KH|03|7647218","Earth|Asia|Cambodia|Kampong Chhnang|Baribour","1","1"
"37190","37190_3688007","3","3688007","Cajicá","4.91284","-74.05261","ADM2","second-order administrative division","6295630|6255150|CO|33|3688007","Earth|South America|Colombia|Cundinamarca|Cajicá","1","1"
"35982","35982_3653402","3","3653402","Cantón Pasaje","-3.33333","-79.81667","ADM2","second-order administrative division","6295630|6255150|EC|08|3653402","Earth|South America|Ecuador|Provincia de El Oro|Cantón Pasaje","1","1"
"35982","35982_3649913","3","3649913","Cantón Zaruma","-3.68333","-79.61667","ADM2","second-order administrative division","6295630|6255150|EC|08|3649913","Earth|South America|Ecuador|Provincia de El Oro|Cantón Zaruma","1","1"
"34474","34474_1905533","3","1905533","Cao Lộc District","21.89857","106.85435","ADM2","second-order administrative division","6295630|6255147|VN|39|1905533","Earth|Asia|Vietnam|Tỉnh Lạng Sơn|Cao Lộc District","1","1"
"37190","37190_3686677","3","3686677","Chía","4.84452","-74.05848","ADM2","second-order administrative division","6295630|6255150|CO|33|3686677","Earth|South America|Colombia|Cundinamarca|Chía","1","1"
"32146","32146_7647221","3","7647221","Cheung Prey","12.1","105.07","ADM2","second-order administrative division","6295630|6255147|KH|02|7647221","Earth|Asia|Cambodia|Kampong Cham|Cheung Prey","1","2"
"32128","32128_7647221","3","7647221","Cheung Prey","12.1","105.07","ADM2","second-order administrative division","6295630|6255147|KH|02|7647221","Earth|Asia|Cambodia|Kampong Cham|Cheung Prey","1","1"
"35272","35272_9253777","3","9253777","Chhloung","12.17723","106.11558","ADM2","second-order administrative division","6295630|6255147|KH|09|9253777","Earth|Asia|Cambodia|Kratie|Chhloung","1","1"
"33092","33092_9072882","3","9072882","Chhouk District","10.81667","104.45","ADM2","second-order administrative division","6295630|6255147|KH|21|9072882","Earth|Asia|Cambodia|Kampot|Chhouk District","1","1"
"32146","32146_9253803","3","9253803","Chi Kraeng","13.20771","104.37154","ADM2","second-order administrative division","6295630|6255147|KH|24|9253803","Earth|Asia|Cambodia|Siem Reap|Chi Kraeng","1","2"
"38785","38785_9253803","3","9253803","Chi Kraeng","13.20771","104.37154","ADM2","second-order administrative division","6295630|6255147|KH|24|9253803","Earth|Asia|Cambodia|Siem Reap|Chi Kraeng","1","1"
"32128","32128_9253803","3","9253803","Chi Kraeng","13.20771","104.37154","ADM2","second-order administrative division","6295630|6255147|KH|24|9253803","Earth|Asia|Cambodia|Siem Reap|Chi Kraeng","1","1"
"37190","37190_3686135","3","3686135","Cogua","5.08474","-73.9949","ADM2","second-order administrative division","6295630|6255150|CO|33|3686135","Earth|South America|Colombia|Cundinamarca|Cogua","1","1"
"37190","37190_3685734","3","3685734","Cota","4.77601","-74.14335","ADM2","second-order administrative division","6295630|6255150|CO|33|3685734","Earth|South America|Colombia|Cundinamarca|Cota","1","1"
"34450","34450_1281381","3","1281381","Dehong Daizu Jingpozu Zizhizhou","24.66347","98.03964","ADM2","second-order administrative division","6295630|6255147|CN|29|1281381","Earth|Asia|China|Yunnan|Dehong Daizu Jingpozu Zizhizhou","1","1"
"34133","34133_1281381","3","1281381","Dehong Daizu Jingpozu Zizhizhou","24.66347","98.03964","ADM2","second-order administrative division","6295630|6255147|CN|29|1281381","Earth|Asia|China|Yunnan|Dehong Daizu Jingpozu Zizhizhou","1","1"
"32996","32996_7731058","3","7731058","Dodoma Urban District","-6.15973","35.798","ADM2","second-order administrative division","6295630|6255146|TZ|03|7731058","Earth|Africa|Tanzania|Dodoma|Dodoma Urban District","1","1"
"37095","37095_3682314","3","3682314","Frontino","6.66667","-76.33333","ADM2","second-order administrative division","6295630|6255150|CO|02|3682314","Earth|South America|Colombia|Antioquia|Frontino","1","1"
"37190","37190_3682263","3","3682263","Gachancipá","4.98648","-73.89989","ADM2","second-order administrative division","6295630|6255150|CO|33|3682263","Earth|South America|Colombia|Cundinamarca|Gachancipá","1","1"
"34474","34474_1905125","3","1905125","Gia Lâm District","21.03156","105.97432","ADM2","second-order administrative division","6295630|6255147|VN|44|1905125","Earth|Asia|Vietnam|Thành Phố Hà Nội|Gia Lâm District","1","1"
"34474","34474_1905538","3","1905538","Hữu Lũng District","21.54474","106.34386","ADM2","second-order administrative division","6295630|6255147|VN|39|1905538","Earth|Asia|Vietnam|Tỉnh Lạng Sơn|Hữu Lũng District","1","1"
"34474","34474_1905586","3","1905586","Hạ Hòa District","21.57763","104.99464","ADM2","second-order administrative division","6295630|6255147|VN|83|1905586","Earth|Asia|Vietnam|Tỉnh Phú Thọ|Hạ Hòa District","1","1"
"35037","35037_443332","3","443332","Hoima District","1.393","31.11","ADM2","second-order administrative division","6295630|6255146|UG|W|443332","Earth|Africa|Uganda|Western Region|Hoima District","1","1"
"35270","35270_1905501","3","1905501","Huyện Đại Từ","21.63434","105.61529","ADM2","second-order administrative division","6295630|6255147|VN|85|1905501","Earth|Asia|Vietnam|Tỉnh Thái Nguyên|Huyện Đại Từ","1","1"
"34474","34474_1905007","3","1905007","Huyện Bảo Thắng","22.36896","104.13893","ADM2","second-order administrative division","6295630|6255147|VN|90|1905007","Earth|Asia|Vietnam|Tỉnh Lào Cai|Huyện Bảo Thắng","1","1"
"34474","34474_1905012","3","1905012","Huyện Bảo Yên","22.26109","104.46424","ADM2","second-order administrative division","6295630|6255147|VN|90|1905012","Earth|Asia|Vietnam|Tỉnh Lào Cai|Huyện Bảo Yên","1","1"
"34474","34474_1905535","3","1905535","Huyện Chi Lăng","21.67602","106.62925","ADM2","second-order administrative division","6295630|6255147|VN|39|1905535","Earth|Asia|Vietnam|Tỉnh Lạng Sơn|Huyện Chi Lăng","1","1"
"35272","35272_1905483","3","1905483","Huyện Lộc Ninh","11.85851","106.57854","ADM2","second-order administrative division","6295630|6255147|VN|76|1905483","Earth|Asia|Vietnam|Tỉnh Bình Phước|Huyện Lộc Ninh","1","1"
"34474","34474_1905441","3","1905441","Huyện Lạng Giang","21.37743","106.25866","ADM2","second-order administrative division","6295630|6255147|VN|71|1905441","Earth|Asia|Vietnam|Tỉnh Bắc Giang|Huyện Lạng Giang","1","1"
"34474","34474_1905573","3","1905573","Huyện Mê Linh","21.18245","105.7114","ADM2","second-order administrative division","6295630|6255147|VN|44|1905573","Earth|Asia|Vietnam|Thành Phố Hà Nội|Huyện Mê Linh","1","1"
"34474","34474_1905500","3","1905500","Huyện Phổ Yên","21.41206","105.82432","ADM2","second-order administrative division","6295630|6255147|VN|85|1905500","Earth|Asia|Vietnam|Tỉnh Thái Nguyên|Huyện Phổ Yên","1","1"
"34475","34475_1905130","3","1905130","Huyện Từ Liêm","21.04219","105.75193","ADM2","second-order administrative division","6295630|6255147|VN|44|1905130","Earth|Asia|Vietnam|Thành Phố Hà Nội|Huyện Từ Liêm","1","1"
"34474","34474_1905575","3","1905575","Huyện Vĩnh Tường","21.24433","105.49683","ADM2","second-order administrative division","6295630|6255147|VN|86|1905575","Earth|Asia|Vietnam|Tỉnh Vĩnh Phúc|Huyện Vĩnh Tường","1","1"
"34474","34474_1905434","3","1905434","Huyện Việt Yên","21.27493","106.08998","ADM2","second-order administrative division","6295630|6255147|VN|71|1905434","Earth|Asia|Vietnam|Tỉnh Bắc Giang|Huyện Việt Yên","1","1"
"34474","34474_1905438","3","1905438","Huyện Yên Dũng","21.21667","106.25","ADM2","second-order administrative division","6295630|6255147|VN|71|1905438","Earth|Asia|Vietnam|Tỉnh Bắc Giang|Huyện Yên Dũng","1","1"
"32996","32996_159239","3","159239","Ilala District","-6.91805","39.16254","ADM2","second-order administrative division","6295630|6255146|TZ|23|159239","Earth|Africa|Tanzania|Dar es Salaam Region|Ilala District","1","1"
"32996","32996_9998065","3","9998065","Iringa Urban","-7.73476","35.70096","ADM2","second-order administrative division","6295630|6255146|TZ|04|9998065","Earth|Africa|Tanzania|Iringa|Iringa Urban","1","1"
"32239","32239_9253790","3","9253790","Kamchay Mear","11.58697","105.64457","ADM2","second-order administrative division","6295630|6255147|KH|14|9253790","Earth|Asia|Cambodia|Prey Veng|Kamchay Mear","1","1"
"32146","32146_7647526","3","7647526","Kampong Cham","11.98","105.445","ADM2","second-order administrative division","6295630|6255147|KH|02|7647526","Earth|Asia|Cambodia|Kampong Cham|Kampong Cham","1","2"
"39178","39178_7647526","3","7647526","Kampong Cham","11.98","105.445","ADM2","second-order administrative division","6295630|6255147|KH|02|7647526","Earth|Asia|Cambodia|Kampong Cham|Kampong Cham","1","1"
"33064","33064_7647209","3","7647209","Kampong Chhnang","12.26","104.67","ADM2","second-order administrative division","6295630|6255147|KH|03|7647209","Earth|Asia|Cambodia|Kampong Chhnang|Kampong Chhnang","1","1"
"35272","35272_9253741","3","9253741","Kaoh Soutin","11.88585","105.37223","ADM2","second-order administrative division","6295630|6255147|KH|02|9253741","Earth|Asia|Cambodia|Kampong Cham Province|Kaoh Soutin","1","1"
"35785","35785_8238778","3","8238778","Kengtung District","21.58298","99.5889","ADM2","second-order administrative division","6295630|6255147|MM|11|8238778","Earth|Asia|Myanmar [Burma]|Shan State|Kengtung District","1","1"
"32105","32105_8403884","3","8403884","Khan Pailĭn","12.7869","102.6285","ADM2","second-order administrative division","6295630|6255147|KH|30|8403884","Earth|Asia|Cambodia|Pailin|Khan Pailĭn","1","1"
"32164","32164_8405993","3","8405993","Khan Russey Keo","11.61946","104.9099","ADM2","second-order administrative division","6295630|6255147|KH|22|8405993","Earth|Asia|Cambodia|Phnom Penh|Khan Russey Keo","1","1"
"32247","32247_8405993","3","8405993","Khan Russey Keo","11.61946","104.9099","ADM2","second-order administrative division","6295630|6255147|KH|22|8405993","Earth|Asia|Cambodia|Phnom Penh|Khan Russey Keo","1","1"
"30597","30597_7647520","3","7647520","Kibaha District","-6.76667","38.91667","ADM2","second-order administrative division","6295630|6255146|TZ|02|7647520","Earth|Africa|Tanzania|Pwani|Kibaha District","1","1"
"32053","32053_9253767","3","9253767","Kien Svay","11.43189","105.12096","ADM2","second-order administrative division","6295630|6255147|KH|07|9253767","Earth|Asia|Cambodia|Kandal|Kien Svay","1","1"
"33064","33064_8405252","3","8405252","Krŏng Poŭthĭsăt","12.52751","103.91813","ADM2","second-order administrative division","6295630|6255147|KH|12|8405252","Earth|Asia|Cambodia|Pursat|Krŏng Poŭthĭsăt","1","1"
"32153","32153_8405034","3","8405034","Krŏng Sênmônoŭrôm","12.5048","107.15525","ADM2","second-order administrative division","6295630|6255147|KH|10|8405034","Earth|Asia|Cambodia|Mondolkiri|Krŏng Sênmônoŭrôm","1","1"
"32454","32454_7647220","3","7647220","Kracheh","12.57","106.2","ADM2","second-order administrative division","6295630|6255147|KH|09|7647220","Earth|Asia|Cambodia|Kratie|Kracheh","1","1"
"32146","32146_7647220","3","7647220","Kracheh","12.57","106.2","ADM2","second-order administrative division","6295630|6255147|KH|09|7647220","Earth|Asia|Cambodia|Kratie|Kracheh","1","2"
"32081","32081_7647220","3","7647220","Kracheh","12.57","106.2","ADM2","second-order administrative division","6295630|6255147|KH|09|7647220","Earth|Asia|Cambodia|Kratie|Kracheh","1","1"
"34309","34309_1804649","3","1804649","Kunming Shi","25.29437","102.81853","ADM2","second-order administrative division","6295630|6255147|CN|29|1804649","Earth|Asia|China|Yunnan|Kunming Shi","1","1"
"34474","34474_8741043","3","8741043","Lâm Thao District","21.29971","105.31119","ADM2","second-order administrative division","6295630|6255147|VN|83|8741043","Earth|Asia|Vietnam|Tỉnh Phú Thọ|Lâm Thao District","1","1"
"32146","32146_9253742","3","9253742","Memot","11.88137","106.20444","ADM2","second-order administrative division","6295630|6255147|KH|02|9253742","Earth|Asia|Cambodia|Kampong Cham Province|Memot","1","2"
"35272","35272_9253742","3","9253742","Memot","11.88137","106.20444","ADM2","second-order administrative division","6295630|6255147|KH|02|9253742","Earth|Asia|Cambodia|Kampong Cham Province|Memot","1","1"
"37095","37095_3674655","3","3674655","Mocoa","1.15","-76.61667","ADM2","second-order administrative division","6295630|6255150|CO|22|3674655","Earth|South America|Colombia|Departamento del Putumayo|Mocoa","1","1"
"32996","32996_153216","3","153216","Morogoro Urban","-6.81667","37.66667","ADM2","second-order administrative division","6295630|6255146|TZ|10|153216","Earth|Africa|Tanzania|Morogoro|Morogoro Urban","1","1"
"32996","32996_8299555","3","8299555","Moshi Urban District","-3.352","37.341","ADM2","second-order administrative division","6295630|6255146|TZ|06|8299555","Earth|Africa|Tanzania|Kilimanjaro|Moshi Urban District","1","1"
"33824","33824_1904829","3","1904829","Muang Boun-Nua","21.66787","101.89396","ADM2","second-order administrative division","6295630|6255147|LA|18|1904829","Earth|Asia|Laos|Khouèng Phôngsali|Muang Boun-Nua","1","1"
"33824","33824_1904830","3","1904830","Muang Gnot-Ou","22.19586","101.874","ADM2","second-order administrative division","6295630|6255147|LA|18|1904830","Earth|Asia|Laos|Khouèng Phôngsali|Muang Gnot-Ou","1","1"
"33801","33801_1651946","3","1651946","Muang Houayxay","20.38763","100.62687","ADM2","second-order administrative division","6295630|6255147|LA|22|1651946","Earth|Asia|Laos|Khouèng Bokèo|Muang Houayxay","1","1"
"38597","38597_1655557","3","1655557","Muang Louangphabang","19.8226","102.15214","ADM2","second-order administrative division","6295630|6255147|LA|17|1655557","Earth|Asia|Laos|Luang Prabang Province|Muang Louangphabang","1","1"
"33832","33832_1904839","3","1904839","Muang Maypakngum","18.13972","102.93772","ADM2","second-order administrative division","6295630|6255147|LA|24|1904839","Earth|Asia|Laos|Vientiane|Muang Maypakngum","1","1"
"33810","33810_1654981","3","1654981","Muang Nambak","20.61018","102.39686","ADM2","second-order administrative division","6295630|6255147|LA|17|1654981","Earth|Asia|Laos|Luang Prabang Province|Muang Nambak","1","1"
"38597","38597_1654981","3","1654981","Muang Nambak","20.61018","102.39686","ADM2","second-order administrative division","6295630|6255147|LA|17|1654981","Earth|Asia|Laos|Luang Prabang Province|Muang Nambak","1","1"
"35711","35711_1652070","3","1652070","Muang Ngeun","19.72046","101.13548","ADM2","second-order administrative division","6295630|6255147|LA|13|1652070","Earth|Asia|Laos|Xaignabouli|Muang Ngeun","1","1"
"33773","33773_1654686","3","1654686","Muang Ngoy","20.73393","102.7515","ADM2","second-order administrative division","6295630|6255147|LA|17|1654686","Earth|Asia|Laos|Luang Prabang Province|Muang Ngoy","1","1"
"35711","35711_1654418","3","1654418","Muang Pakbèng","19.93573","101.06482","ADM2","second-order administrative division","6295630|6255147|LA|07|1654418","Earth|Asia|Laos|Khouèng Oudômxai|Muang Pakbèng","1","1"
"38597","38597_1652132","3","1652132","Muang Xai","20.66447","101.95554","ADM2","second-order administrative division","6295630|6255147|LA|07|1652132","Earth|Asia|Laos|Khouèng Oudômxai|Muang Xai","1","1"
"35272","35272_9253771","3","9253771","Mukh Kampul","11.75438","104.94091","ADM2","second-order administrative division","6295630|6255147|KH|07|9253771","Earth|Asia|Cambodia|Kandal Province|Mukh Kampul","1","1"
"32164","32164_9253771","3","9253771","Mukh Kampul","11.75438","104.94091","ADM2","second-order administrative division","6295630|6255147|KH|07|9253771","Earth|Asia|Cambodia|Kandal Province|Mukh Kampul","1","1"
"37829","37829_3649809","3","3649809","Municipio Achaguas","7.25","-68.41667","ADM2","second-order administrative division","6295630|6255150|VE|03|3649809","Earth|South America|Venezuela|Apure|Municipio Achaguas","1","1"
"37478","37478_3649281","3","3649281","Municipio Anaco","9.33333","-64.46667","ADM2","second-order administrative division","6295630|6255150|VE|02|3649281","Earth|South America|Venezuela|Anzoátegui|Municipio Anaco","1","1"
"35881","35881_3649281","3","3649281","Municipio Anaco","9.33333","-64.46667","ADM2","second-order administrative division","6295630|6255150|VE|02|3649281","Earth|South America|Venezuela|Anzoátegui|Municipio Anaco","1","1"
"37478","37478_3649111","3","3649111","Municipio Aragua","9.31667","-64.9","ADM2","second-order administrative division","6295630|6255150|VE|02|3649111","Earth|South America|Venezuela|Anzoátegui|Municipio Aragua","1","1"
"35881","35881_3649111","3","3649111","Municipio Aragua","9.31667","-64.9","ADM2","second-order administrative division","6295630|6255150|VE|02|3649111","Earth|South America|Venezuela|Anzoátegui|Municipio Aragua","1","1"
"37829","37829_8129211","3","8129211","Municipio Biruaca","7.84483","-67.51679","ADM2","second-order administrative division","6295630|6255150|VE|03|8129211","Earth|South America|Venezuela|Apure|Municipio Biruaca","1","1"
"35881","35881_8129191","3","8129191","Municipio Chaguaramas","9.33855","-66.25255","ADM2","second-order administrative division","6295630|6255150|VE|12|8129191","Earth|South America|Venezuela|Guárico|Municipio Chaguaramas","1","1"
"37829","37829_3640213","3","3640213","Municipio Guanarito","8.5","-69.0","ADM2","second-order administrative division","6295630|6255150|VE|18|3640213","Earth|South America|Venezuela|Portuguesa|Municipio Guanarito","1","1"
"35881","35881_8131437","3","8131437","Municipio José Félix Ribas","9.27681","-65.7712","ADM2","second-order administrative division","6295630|6255150|VE|12|8131437","Earth|South America|Venezuela|Guárico|Municipio José Félix Ribas","1","1"
"35881","35881_8129245","3","8129245","Municipio Julián Mellado","9.3863","-67.05818","ADM2","second-order administrative division","6295630|6255150|VE|12|8129245","Earth|South America|Venezuela|Guárico|Municipio Julián Mellado","1","1"
"35881","35881_8129179","3","8129179","Municipio Leonardo Infante","9.21554","-66.00734","ADM2","second-order administrative division","6295630|6255150|VE|12|8129179","Earth|South America|Venezuela|Guárico|Municipio Leonardo Infante","1","1"
"37496","37496_3632193","3","3632193","Municipio Miranda","10.75","-71.25","ADM2","second-order administrative division","6295630|6255150|VE|23|3632193","Earth|South America|Venezuela|Zulia|Municipio Miranda","1","1"
"35881","35881_8129208","3","8129208","Municipio Ortiz","9.62168","-67.29047","ADM2","second-order administrative division","6295630|6255150|VE|12|8129208","Earth|South America|Venezuela|Guárico|Municipio Ortiz","1","1"
"37478","37478_8129190","3","8129190","Municipio Pao de San Juan Bautista","9.63752","-68.12884","ADM2","second-order administrative division","6295630|6255150|VE|08|8129190","Earth|South America|Venezuela|Cojedes|Municipio Pao de San Juan Bautista","1","1"
"35881","35881_8129190","3","8129190","Municipio Pao de San Juan Bautista","9.63752","-68.12884","ADM2","second-order administrative division","6295630|6255150|VE|08|8129190","Earth|South America|Venezuela|Cojedes|Municipio Pao de San Juan Bautista","1","1"
"35881","35881_8129261","3","8129261","Municipio Pedro Zaraza","9.35029","-65.32452","ADM2","second-order administrative division","6295630|6255150|VE|12|8129261","Earth|South America|Venezuela|Guárico|Municipio Pedro Zaraza","1","1"
"38146","38146_8129246","3","8129246","Municipio Raúl Leoni","7.49247","-63.26941","ADM2","second-order administrative division","6295630|6255150|VE|06|8129246","Earth|South America|Venezuela|Bolívar|Municipio Raúl Leoni","1","1"
"38146","38146_3628468","3","3628468","Municipio San Cristóbal","7.71667","-72.16667","ADM2","second-order administrative division","6295630|6255150|VE|20|3628468","Earth|South America|Venezuela|Táchira|Municipio San Cristóbal","1","1"
"37478","37478_3626234","3","3626234","Municipio Tinaco","9.66667","-68.33333","ADM2","second-order administrative division","6295630|6255150|VE|08|3626234","Earth|South America|Venezuela|Cojedes|Municipio Tinaco","1","1"
"35881","35881_3626234","3","3626234","Municipio Tinaco","9.66667","-68.33333","ADM2","second-order administrative division","6295630|6255150|VE|08|3626234","Earth|South America|Venezuela|Cojedes|Municipio Tinaco","1","1"
"37289","37289_3625547","3","3625547","Municipio Valencia","10.08333","-68.08333","ADM2","second-order administrative division","6295630|6255150|VE|07|3625547","Earth|South America|Venezuela|Carabobo|Municipio Valencia","1","1"
"30718","30718_7056294","3","7056294","Nakaseke District","1.04063","32.18968","ADM2","second-order administrative division","6295630|6255146|UG|C|7056294","Earth|Africa|Uganda|Central Region|Nakaseke District","1","2"
"38947","38947_8239588","3","8239588","Naypyitaw District","19.8822","96.14182","ADM2","second-order administrative division","6295630|6255147|MM|08|8239588","Earth|Asia|Myanmar [Burma]|Mandalay Region|Naypyitaw District","1","1"
"37190","37190_3673888","3","3673888","Nemocón","5.06966","-73.90606","ADM2","second-order administrative division","6295630|6255150|CO|33|3673888","Earth|South America|Colombia|Cundinamarca|Nemocón","1","1"
"33064","33064_8740317","3","8740317","Ou Chrov District","13.64699","102.60956","ADM2","second-order administrative division","6295630|6255147|KH|25|8740317","Earth|Asia|Cambodia|Banteay Meanchey|Ou Chrov District","1","1"
"32153","32153_9253785","3","9253785","Ou Reang","12.39555","107.32439","ADM2","second-order administrative division","6295630|6255147|KH|10|9253785","Earth|Asia|Cambodia|Mondolkiri|Ou Reang","1","1"
"32155","32155_9253785","3","9253785","Ou Reang","12.39555","107.32439","ADM2","second-order administrative division","6295630|6255147|KH|10|9253785","Earth|Asia|Cambodia|Mondolkiri|Ou Reang","1","1"
"35272","35272_8985933","3","8985933","Ou Reang Ov District","11.84265","105.52399","ADM2","second-order administrative division","6295630|6255147|KH|02|8985933","Earth|Asia|Cambodia|Kampong Cham Province|Ou Reang Ov District","1","1"
"32239","32239_9253793","3","9253793","Pea Reang","11.65194","105.23903","ADM2","second-order administrative division","6295630|6255147|KH|14|9253793","Earth|Asia|Cambodia|Prey Veng|Pea Reang","1","1"
"38647","38647_7647524","3","7647524","Ponhea Kraek","11.77","105.87","ADM2","second-order administrative division","6295630|6255147|KH|02|7647524","Earth|Asia|Cambodia|Kampong Cham Province|Ponhea Kraek","1","1"
"35272","35272_9253772","3","9253772","Popnhea Lueu","11.75233","104.80573","ADM2","second-order administrative division","6295630|6255147|KH|07|9253772","Earth|Asia|Cambodia|Kandal|Popnhea Lueu","1","1"
"38722","38722_9253772","3","9253772","Popnhea Lueu","11.75233","104.80573","ADM2","second-order administrative division","6295630|6255147|KH|07|9253772","Earth|Asia|Cambodia|Kandal|Popnhea Lueu","1","1"
"32195","32195_7873979","3","7873979","Prasat Balangk","13.07137","104.84491","ADM2","second-order administrative division","6295630|6255147|KH|05|7873979","Earth|Asia|Cambodia|Kampong Thom|Prasat Balangk","1","1"
"35917","35917_3923690","3","3923690","Provincia Aroma","-17.5","-68.0","ADM2","second-order administrative division","6295630|6255150|BO|04|3923690","Earth|South America|Bolivia|Departamento de La Paz|Provincia Aroma","1","1"
"35917","35917_3921629","3","3921629","Provincia Cercado","-17.91667","-67.08333","ADM2","second-order administrative division","6295630|6255150|BO|05|3921629","Earth|South America|Bolivia|Oruro|Provincia Cercado","1","1"
"35999","35999_3938414","3","3938414","Provincia de Ilo","-17.49694","-71.16722","ADM2","second-order administrative division","6295630|6255150|PE|18|3938414","Earth|South America|Peru|Departamento de Moquegua|Provincia de Ilo","1","1"
"38832","38832_3915596","3","3915596","Provincia General José Ballivián","-14.0","-67.08333","ADM2","second-order administrative division","6295630|6255150|BO|03|3915596","Earth|South America|Bolivia|El Beni|Provincia General José Ballivián","1","1"
"35917","35917_3914178","3","3914178","Provincia Ingavi","-16.83333","-68.66667","ADM2","second-order administrative division","6295630|6255150|BO|04|3914178","Earth|South America|Bolivia|Departamento de La Paz|Provincia Ingavi","1","1"
"35917","35917_3909793","3","3909793","Provincia Murillo","-16.33333","-68.0","ADM2","second-order administrative division","6295630|6255150|BO|04|3909793","Earth|South America|Bolivia|Departamento de La Paz|Provincia Murillo","1","1"
"38832","38832_3901896","3","3901896","Provincia Vaca Diez","-11.66667","-66.0","ADM2","second-order administrative division","6295630|6255150|BO|03|3901896","Earth|South America|Bolivia|El Beni|Provincia Vaca Diez","1","1"
"38832","38832_3901175","3","3901175","Provincia Yacuma","-13.5","-66.0","ADM2","second-order administrative division","6295630|6255150|BO|03|3901175","Earth|South America|Bolivia|El Beni|Provincia Yacuma","1","1"
"34474","34474_8615793","3","8615793","Quận Long Biên","21.04144","105.8962","ADM2","second-order administrative division","6295630|6255147|VN|44|8615793","Earth|Asia|Vietnam|Thành Phố Hà Nội|Quận Long Biên","1","1"
"34683","34683_1904886","3","1904886","Quận Tân Bình","10.80772","106.65377","ADM2","second-order administrative division","6295630|6255147|VN|20|1904886","Earth|Asia|Vietnam|Saigon|Quận Tân Bình","1","1"
"30456","30456_7688807","3","7688807","Rulindo District","-1.73828","29.99794","ADM2","second-order administrative division","6295630|6255146|RW|13|7688807","Earth|Africa|Rwanda|Northern Province|Rulindo District","1","1"
"38647","38647_9253813","3","9253813","Rumduol","11.22161","105.82978","ADM2","second-order administrative division","6295630|6255147|KH|18|9253813","Earth|Asia|Cambodia|Svay Rieng|Rumduol","1","1"
"34474","34474_1905128","3","1905128","Sóc Sơn District","21.27098","105.82976","ADM2","second-order administrative division","6295630|6255147|VN|44|1905128","Earth|Asia|Vietnam|Thành Phố Hà Nội|Sóc Sơn District","1","1"
"32454","32454_9253779","3","9253779","Sambour","12.98255","106.09257","ADM2","second-order administrative division","6295630|6255147|KH|09|9253779","Earth|Asia|Cambodia|Kratie|Sambour","1","1"
"32146","32146_9253779","3","9253779","Sambour","12.98255","106.09257","ADM2","second-order administrative division","6295630|6255147|KH|09|9253779","Earth|Asia|Cambodia|Kratie|Sambour","1","2"
"32081","32081_9253779","3","9253779","Sambour","12.98255","106.09257","ADM2","second-order administrative division","6295630|6255147|KH|09|9253779","Earth|Asia|Cambodia|Kratie|Sambour","1","1"
"32187","32187_7647213","3","7647213","Sangkae","13.06","103.42","ADM2","second-order administrative division","6295630|6255147|KH|29|7647213","Earth|Asia|Cambodia|Battambang|Sangkae","1","1"
"32146","32146_7647223","3","7647223","Santuk","12.64","105.32","ADM2","second-order administrative division","6295630|6255147|KH|05|7647223","Earth|Asia|Cambodia|Kampong Thom|Santuk","1","2"
"32128","32128_7647223","3","7647223","Santuk","12.64","105.32","ADM2","second-order administrative division","6295630|6255147|KH|05|7647223","Earth|Asia|Cambodia|Kampong Thom|Santuk","1","1"
"32252","32252_7647223","3","7647223","Santuk","12.64","105.32","ADM2","second-order administrative division","6295630|6255147|KH|05|7647223","Earth|Asia|Cambodia|Kampong Thom|Santuk","1","1"
"32454","32454_9253808","3","9253808","Siem Bouk","13.30424","105.81812","ADM2","second-order administrative division","6295630|6255147|KH|17|9253808","Earth|Asia|Cambodia|Stung Treng|Siem Bouk","1","1"
"32146","32146_9253808","3","9253808","Siem Bouk","13.30424","105.81812","ADM2","second-order administrative division","6295630|6255147|KH|17|9253808","Earth|Asia|Cambodia|Stung Treng|Siem Bouk","1","2"
"32081","32081_9253808","3","9253808","Siem Bouk","13.30424","105.81812","ADM2","second-order administrative division","6295630|6255147|KH|17|9253808","Earth|Asia|Cambodia|Stung Treng|Siem Bouk","1","1"
"32119","32119_9253808","3","9253808","Siem Bouk","13.30424","105.81812","ADM2","second-order administrative division","6295630|6255147|KH|17|9253808","Earth|Asia|Cambodia|Stung Treng|Siem Bouk","1","1"
"32146","32146_7647224","3","7647224","Siem Reap","13.31","103.85","ADM2","second-order administrative division","6295630|6255147|KH|24|7647224","Earth|Asia|Cambodia|Siem Reap|Siem Reap","1","2"
"33824","33824_1794208","3","1794208","Simao Shi","23.25943","100.65106","ADM2","second-order administrative division","6295630|6255147|CN|29|1794208","Earth|Asia|China|Yunnan|Simao Shi","1","1"
"32996","32996_7731078","3","7731078","Singida Urban District","-4.84","34.71","ADM2","second-order administrative division","6295630|6255146|TZ|16|7731078","Earth|Africa|Tanzania|Singida|Singida Urban District","1","1"
"39178","39178_9253797","3","9253797","Sithor Kandal","11.77119","105.36548","ADM2","second-order administrative division","6295630|6255147|KH|14|9253797","Earth|Asia|Cambodia|Prey Veng|Sithor Kandal","1","1"
"32454","32454_9253780","3","9253780","Snuol","12.19373","106.47361","ADM2","second-order administrative division","6295630|6255147|KH|09|9253780","Earth|Asia|Cambodia|Kratie|Snuol","1","1"
"32146","32146_9253780","3","9253780","Snuol","12.19373","106.47361","ADM2","second-order administrative division","6295630|6255147|KH|09|9253780","Earth|Asia|Cambodia|Kratie|Snuol","1","2"
"32113","32113_9253780","3","9253780","Snuol","12.19373","106.47361","ADM2","second-order administrative division","6295630|6255147|KH|09|9253780","Earth|Asia|Cambodia|Kratie|Snuol","1","1"
"32081","32081_9253780","3","9253780","Snuol","12.19373","106.47361","ADM2","second-order administrative division","6295630|6255147|KH|09|9253780","Earth|Asia|Cambodia|Kratie|Snuol","1","1"
"32153","32153_9253780","3","9253780","Snuol","12.19373","106.47361","ADM2","second-order administrative division","6295630|6255147|KH|09|9253780","Earth|Asia|Cambodia|Kratie|Snuol","1","1"
"35272","35272_9253780","3","9253780","Snuol","12.19373","106.47361","ADM2","second-order administrative division","6295630|6255147|KH|09|9253780","Earth|Asia|Cambodia|Kratie|Snuol","1","1"
"32155","32155_9253780","3","9253780","Snuol","12.19373","106.47361","ADM2","second-order administrative division","6295630|6255147|KH|09|9253780","Earth|Asia|Cambodia|Kratie|Snuol","1","1"
"37190","37190_3667808","3","3667808","Sopó","4.87157","-73.98616","ADM2","second-order administrative division","6295630|6255150|CO|33|3667808","Earth|South America|Colombia|Cundinamarca|Sopó","1","1"
"32146","32146_9253806","3","9253806","Soutr Nkom","13.23223","104.12952","ADM2","second-order administrative division","6295630|6255147|KH|24|9253806","Earth|Asia|Cambodia|Siem Reap|Soutr Nkom","1","2"
"32128","32128_9253806","3","9253806","Soutr Nkom","13.23223","104.12952","ADM2","second-order administrative division","6295630|6255147|KH|24|9253806","Earth|Asia|Cambodia|Siem Reap|Soutr Nkom","1","1"
"35272","35272_1830230","3","1830230","Srŏk Ŏdŏngk","11.66845","104.61224","ADM2","second-order administrative division","6295630|6255147|KH|04|1830230","Earth|Asia|Cambodia|Kampong Speu|Srŏk Ŏdŏngk","1","1"
"32119","32119_8405026","3","8405026","Srŏk Ban Lŭng","13.682","107.03025","ADM2","second-order administrative division","6295630|6255147|KH|23|8405026","Earth|Asia|Cambodia|Ratanakiri|Srŏk Ban Lŭng","1","1"
"32105","32105_8541388","3","8541388","Srŏk Banăn","12.97067","103.04742","ADM2","second-order administrative division","6295630|6255147|KH|29|8541388","Earth|Asia|Cambodia|Battambang|Srŏk Banăn","1","1"
"35591","35591_8541388","3","8541388","Srŏk Banăn","12.97067","103.04742","ADM2","second-order administrative division","6295630|6255147|KH|29|8541388","Earth|Asia|Cambodia|Battambang|Srŏk Banăn","1","1"
"32168","32168_8541388","3","8541388","Srŏk Banăn","12.97067","103.04742","ADM2","second-order administrative division","6295630|6255147|KH|29|8541388","Earth|Asia|Cambodia|Battambang|Srŏk Banăn","1","1"
"32187","32187_8541388","3","8541388","Srŏk Banăn","12.97067","103.04742","ADM2","second-order administrative division","6295630|6255147|KH|29|8541388","Earth|Asia|Cambodia|Battambang|Srŏk Banăn","1","1"
"33092","33092_8405257","3","8405257","Srŏk Basedth","11.18432","104.53584","ADM2","second-order administrative division","6295630|6255147|KH|04|8405257","Earth|Asia|Cambodia|Kampong Speu|Srŏk Basedth","1","1"
"32128","32128_8403885","3","8403885","Srŏk Bathéay","12.02986","104.93171","ADM2","second-order administrative division","6295630|6255147|KH|02|8403885","Earth|Asia|Cambodia|Kampong Cham Province|Srŏk Bathéay","1","1"
"32164","32164_8403885","3","8403885","Srŏk Bathéay","12.02986","104.93171","ADM2","second-order administrative division","6295630|6255147|KH|02|8403885","Earth|Asia|Cambodia|Kampong Cham Province|Srŏk Bathéay","1","1"
"38722","38722_8403885","3","8403885","Srŏk Bathéay","12.02986","104.93171","ADM2","second-order administrative division","6295630|6255147|KH|02|8403885","Earth|Asia|Cambodia|Kampong Cham Province|Srŏk Bathéay","1","1"
"33071","33071_8403983","3","8403983","Srŏk Ch’êh Sên","13.58215","105.34533","ADM2","second-order administrative division","6295630|6255147|KH|13|8403983","Earth|Asia|Cambodia|Preah Vihear Province|Srŏk Ch’êh Sên","1","1"
"33092","33092_8405988","3","8405988","Srŏk Chŭm Kiri","11.0054","104.44207","ADM2","second-order administrative division","6295630|6255147|KH|21|8405988","Earth|Asia|Cambodia|Kampot|Srŏk Chŭm Kiri","1","1"
"35272","35272_8403886","3","8403886","Srŏk Dâmbê","12.03682","105.89976","ADM2","second-order administrative division","6295630|6255147|KH|02|8403886","Earth|Asia|Cambodia|Kampong Cham Province|Srŏk Dâmbê","1","1"
"33092","33092_8405989","3","8405989","Srŏk Dângtóng","10.70733","104.42229","ADM2","second-order administrative division","6295630|6255147|KH|21|8405989","Earth|Asia|Cambodia|Kampot|Srŏk Dângtóng","1","1"
"33092","33092_1830613","3","1830613","Srŏk Kông Pĭsei","11.31648","104.65992","ADM2","second-order administrative division","6295630|6255147|KH|04|1830613","Earth|Asia|Cambodia|Kampong Speu|Srŏk Kông Pĭsei","1","1"
"32146","32146_1831130","3","1831130","Srŏk Kâmpóng Svay","12.74245","104.71999","ADM2","second-order administrative division","6295630|6255147|KH|05|1831130","Earth|Asia|Cambodia|Kampong Thom|Srŏk Kâmpóng Svay","1","2"
"32128","32128_1831130","3","1831130","Srŏk Kâmpóng Svay","12.74245","104.71999","ADM2","second-order administrative division","6295630|6255147|KH|05|1831130","Earth|Asia|Cambodia|Kampong Thom|Srŏk Kâmpóng Svay","1","1"
"32195","32195_1831130","3","1831130","Srŏk Kâmpóng Svay","12.74245","104.71999","ADM2","second-order administrative division","6295630|6255147|KH|05|1831130","Earth|Asia|Cambodia|Kampong Thom|Srŏk Kâmpóng Svay","1","1"
"32153","32153_8405032","3","8405032","Srŏk Kaev Seima","12.41722","106.77025","ADM2","second-order administrative division","6295630|6255147|KH|10|8405032","Earth|Asia|Cambodia|Mondolkiri|Srŏk Kaev Seima","1","1"
"32155","32155_8405032","3","8405032","Srŏk Kaev Seima","12.41722","106.77025","ADM2","second-order administrative division","6295630|6255147|KH|10|8405032","Earth|Asia|Cambodia|Mondolkiri|Srŏk Kaev Seima","1","1"
"32113","32113_8405991","3","8405991","Srŏk Khsăch Kândal","11.69224","105.03732","ADM2","second-order administrative division","6295630|6255147|KH|07|8405991","Earth|Asia|Cambodia|Kandal|Srŏk Khsăch Kândal","1","1"
"32239","32239_8405991","3","8405991","Srŏk Khsăch Kândal","11.69224","105.03732","ADM2","second-order administrative division","6295630|6255147|KH|07|8405991","Earth|Asia|Cambodia|Kandal|Srŏk Khsăch Kândal","1","1"
"35272","35272_8405991","3","8405991","Srŏk Khsăch Kândal","11.69224","105.03732","ADM2","second-order administrative division","6295630|6255147|KH|07|8405991","Earth|Asia|Cambodia|Kandal|Srŏk Khsăch Kândal","1","1"
"38647","38647_8405991","3","8405991","Srŏk Khsăch Kândal","11.69224","105.03732","ADM2","second-order administrative division","6295630|6255147|KH|07|8405991","Earth|Asia|Cambodia|Kandal|Srŏk Khsăch Kândal","1","1"
"32119","32119_8405028","3","8405028","Srŏk Koun Mom","13.51772","106.75142","ADM2","second-order administrative division","6295630|6255147|KH|23|8405028","Earth|Asia|Cambodia|Ratanakiri Province|Srŏk Koun Mom","1","1"
"38785","38785_8403984","3","8403984","Srŏk Kulén","13.78597","104.61052","ADM2","second-order administrative division","6295630|6255147|KH|13|8403984","Earth|Asia|Cambodia|Preah Vihear Province|Srŏk Kulén","1","1"
"39178","39178_8406192","3","8406192","Srŏk Mésang","11.35528","105.57235","ADM2","second-order administrative division","6295630|6255147|KH|14|8406192","Earth|Asia|Cambodia|Prey Veng|Srŏk Mésang","1","1"
"32146","32146_8403888","3","8403888","Srŏk Pônhê Krêk","11.76001","105.85994","ADM2","second-order administrative division","6295630|6255147|KH|02|8403888","Earth|Asia|Cambodia|Kampong Cham Province|Srŏk Pônhê Krêk","1","2"
"32146","32146_8403891","3","8403891","Srŏk Prasat Bakong","13.21031","103.97689","ADM2","second-order administrative division","6295630|6255147|KH|24|8403891","Earth|Asia|Cambodia|Siem Reap|Srŏk Prasat Bakong","1","2"
"32128","32128_8403891","3","8403891","Srŏk Prasat Bakong","13.21031","103.97689","ADM2","second-order administrative division","6295630|6255147|KH|24|8403891","Earth|Asia|Cambodia|Siem Reap|Srŏk Prasat Bakong","1","1"
"32195","32195_1822431","3","1822431","Srŏk Rôviĕng","13.35105","105.09956","ADM2","second-order administrative division","6295630|6255147|KH|13|1822431","Earth|Asia|Cambodia|Preah Vihear|Srŏk Rôviĕng","1","1"
"32105","32105_8403582","3","8403582","Srŏk Rotanak Mondol","12.84048","102.887","ADM2","second-order administrative division","6295630|6255147|KH|29|8403582","Earth|Asia|Cambodia|Battambang|Srŏk Rotanak Mondol","1","1"
"38743","38743_8403582","3","8403582","Srŏk Rotanak Mondol","12.84048","102.887","ADM2","second-order administrative division","6295630|6255147|KH|29|8403582","Earth|Asia|Cambodia|Battambang|Srŏk Rotanak Mondol","1","1"
"32168","32168_8403582","3","8403582","Srŏk Rotanak Mondol","12.84048","102.887","ADM2","second-order administrative division","6295630|6255147|KH|29|8403582","Earth|Asia|Cambodia|Battambang|Srŏk Rotanak Mondol","1","1"
"32119","32119_8404435","3","8404435","Srŏk Srêsén","13.6053","106.35819","ADM2","second-order administrative division","6295630|6255147|KH|17|8404435","Earth|Asia|Cambodia|Stung Treng|Srŏk Srêsén","1","1"
"32146","32146_1822025","3","1822025","Srŏk Stoŭng","12.89922","104.48777","ADM2","second-order administrative division","6295630|6255147|KH|05|1822025","Earth|Asia|Cambodia|Kampong Thom|Srŏk Stoŭng","1","2"
"38785","38785_1822025","3","1822025","Srŏk Stoŭng","12.89922","104.48777","ADM2","second-order administrative division","6295630|6255147|KH|05|1822025","Earth|Asia|Cambodia|Kampong Thom|Srŏk Stoŭng","1","1"
"32128","32128_1822025","3","1822025","Srŏk Stoŭng","12.89922","104.48777","ADM2","second-order administrative division","6295630|6255147|KH|05|1822025","Earth|Asia|Cambodia|Kampong Thom|Srŏk Stoŭng","1","1"
"32239","32239_8406203","3","8406203","Srŏk Svay Ântôr","11.53837","105.43765","ADM2","second-order administrative division","6295630|6255147|KH|14|8406203","Earth|Asia|Cambodia|Prey Veng|Srŏk Svay Ântôr","1","1"
"32195","32195_8403986","3","8403986","Srŏk Tbêng Méanchey","13.78622","105.01586","ADM2","second-order administrative division","6295630|6255147|KH|13|8403986","Earth|Asia|Cambodia|Preah Vihear|Srŏk Tbêng Méanchey","1","1"
"35272","35272_9253747","3","9253747","Srei Santhor","11.83416","105.1693","ADM2","second-order administrative division","6295630|6255147|KH|02|9253747","Earth|Asia|Cambodia|Kampong Cham Province|Srei Santhor","1","1"
"32146","32146_7647211","3","7647211","Stueng Saen","12.63","104.87","ADM2","second-order administrative division","6295630|6255147|KH|05|7647211","Earth|Asia|Cambodia|Kampong Thom|Stueng Saen","1","2"
"32128","32128_7647211","3","7647211","Stueng Saen","12.63","104.87","ADM2","second-order administrative division","6295630|6255147|KH|05|7647211","Earth|Asia|Cambodia|Kampong Thom|Stueng Saen","1","1"
"32454","32454_7647528","3","7647528","Stueng Traeng","13.65","106.07","ADM2","second-order administrative division","6295630|6255147|KH|17|7647528","Earth|Asia|Cambodia|Stung Treng|Stueng Traeng","1","1"
"32146","32146_7647528","3","7647528","Stueng Traeng","13.65","106.07","ADM2","second-order administrative division","6295630|6255147|KH|17|7647528","Earth|Asia|Cambodia|Stung Treng|Stueng Traeng","1","2"
"32081","32081_7647528","3","7647528","Stueng Traeng","13.65","106.07","ADM2","second-order administrative division","6295630|6255147|KH|17|7647528","Earth|Asia|Cambodia|Stung Treng|Stueng Traeng","1","1"
"32168","32168_7647212","3","7647212","Svay Pao","13.085","103.18","ADM2","second-order administrative division","6295630|6255147|KH|29|7647212","Earth|Asia|Cambodia|Battambang|Svay Pao","1","1"
"37190","37190_3667630","3","3667630","Tabio","4.93513","-74.10211","ADM2","second-order administrative division","6295630|6255150|CO|33|3667630","Earth|South America|Colombia|Cundinamarca|Tabio","1","1"
"34474","34474_8609067","3","8609067","Tam Dương District","21.36189","105.5569","ADM2","second-order administrative division","6295630|6255147|VN|86|8609067","Earth|Asia|Vietnam|Tỉnh Vĩnh Phúc|Tam Dương District","1","1"
"32996","32996_149601","3","149601","Tanga City Council","-5.11574","39.02753","ADM2","second-order administrative division","6295630|6255146|TZ|18|149601","Earth|Africa|Tanzania|Tanga|Tanga City Council","1","1"
"32146","32146_7647525","3","7647525","Tboung Khmum","11.98","105.65","ADM2","second-order administrative division","6295630|6255147|KH|02|7647525","Earth|Asia|Cambodia|Kampong Cham Province|Tboung Khmum","1","2"
"35272","35272_7647525","3","7647525","Tboung Khmum","11.98","105.65","ADM2","second-order administrative division","6295630|6255147|KH|02|7647525","Earth|Asia|Cambodia|Kampong Cham Province|Tboung Khmum","1","1"
"37190","37190_3667292","3","3667292","Tenjo","4.8232","-74.16568","ADM2","second-order administrative division","6295630|6255150|CO|33|3667292","Earth|South America|Colombia|Cundinamarca|Tenjo","1","1"
"34474","34474_1905865","3","1905865","Thành phố Bắc Giang","21.28985","106.18903","ADM2","second-order administrative division","6295630|6255147|VN|71|1905865","Earth|Asia|Vietnam|Tỉnh Bắc Giang|Thành phố Bắc Giang","1","1"
"34474","34474_1905413","3","1905413","Thành Phố Bắc Ninh","21.17995","106.0696","ADM2","second-order administrative division","6295630|6255147|VN|74|1905413","Earth|Asia|Vietnam|Tỉnh Bắc Ninh|Thành Phố Bắc Ninh","1","1"
"34676","34676_1905109","3","1905109","Thành Phố Cẩm Phả","21.08266","107.3027","ADM2","second-order administrative division","6295630|6255147|VN|30|1905109","Earth|Asia|Vietnam|Tỉnh Quảng Ninh|Thành Phố Cẩm Phả","1","1"
"34474","34474_1905005","3","1905005","Thành Phố Lào Cai","22.41944","103.99502","ADM2","second-order administrative division","6295630|6255147|VN|90|1905005","Earth|Asia|Vietnam|Tỉnh Lào Cai|Thành Phố Lào Cai","1","1"
"34474","34474_1905531","3","1905531","Thành Phố Lạng Sơn","21.84898","106.7431","ADM2","second-order administrative division","6295630|6255147|VN|39|1905531","Earth|Asia|Vietnam|Tỉnh Lạng Sơn|Thành Phố Lạng Sơn","1","1"
"34474","34474_1905855","3","1905855","Thành Phố Thái Nguyên","21.56062","105.80893","ADM2","second-order administrative division","6295630|6255147|VN|85|1905855","Earth|Asia|Vietnam|Tỉnh Thái Nguyên|Thành Phố Thái Nguyên","1","1"
"34474","34474_1905571","3","1905571","Thành Phố Vĩnh Yên","21.30538","105.5947","ADM2","second-order administrative division","6295630|6255147|VN|86|1905571","Earth|Asia|Vietnam|Tỉnh Vĩnh Phúc|Thành Phố Vĩnh Yên","1","1"
"34474","34474_1905578","3","1905578","Thành Phố Việt Trì","21.32958","105.39217","ADM2","second-order administrative division","6295630|6255147|VN|83|1905578","Earth|Asia|Vietnam|Tỉnh Phú Thọ|Thành Phố Việt Trì","1","1"
"34683","34683_1905049","3","1905049","Thành Phố Vinh","18.69182","105.68097","ADM2","second-order administrative division","6295630|6255147|VN|58|1905049","Earth|Asia|Vietnam|Tỉnh Nghệ An|Thành Phố Vinh","1","1"
"34474","34474_1905660","3","1905660","Thành Phố Yên Bái","21.7324","104.9064","ADM2","second-order administrative division","6295630|6255147|VN|70|1905660","Earth|Asia|Vietnam|Tỉnh Yên Bái|Thành Phố Yên Bái","1","1"
"34474","34474_1905579","3","1905579","Thị xã Phú Thọ","21.41664","105.23636","ADM2","second-order administrative division","6295630|6255147|VN|83|1905579","Earth|Asia|Vietnam|Tỉnh Phú Thọ|Thị xã Phú Thọ","1","1"
"34474","34474_8340641","3","8340641","Thị Xã Từ Sơn","21.12997","105.95932","ADM2","second-order administrative division","6295630|6255147|VN|74|8340641","Earth|Asia|Vietnam|Tỉnh Bắc Ninh|Thị Xã Từ Sơn","1","1"
"34474","34474_1905581","3","1905581","Thanh Ba District","21.47816","105.15881","ADM2","second-order administrative division","6295630|6255147|VN|83|1905581","Earth|Asia|Vietnam|Tỉnh Phú Thọ|Thanh Ba District","1","1"
"34474","34474_1905416","3","1905416","Tiên Du District","21.12195","106.03995","ADM2","second-order administrative division","6295630|6255147|VN|74|1905416","Earth|Asia|Vietnam|Tỉnh Bắc Ninh|Tiên Du District","1","1"
"37190","37190_3666998","3","3666998","Tocancipá","4.9481","-73.94826","ADM2","second-order administrative division","6295630|6255150|CO|33|3666998","Earth|South America|Colombia|Cundinamarca|Tocancipá","1","1"
"33092","33092_9253818","3","9253818","Tram Kak","11.00998","104.60821","ADM2","second-order administrative division","6295630|6255147|KH|19|9253818","Earth|Asia|Cambodia|Takeo|Tram Kak","1","1"
"34474","34474_1905662","3","1905662","Trấn Yên District","21.66586","104.79702","ADM2","second-order administrative division","6295630|6255147|VN|70|1905662","Earth|Asia|Vietnam|Tỉnh Yên Bái|Trấn Yên District","1","1"
"34474","34474_1905665","3","1905665","Văn Yên District","21.90022","104.56669","ADM2","second-order administrative division","6295630|6255147|VN|70|1905665","Earth|Asia|Vietnam|Tỉnh Yên Bái|Văn Yên District","1","1"
"34478","34478_1905213","3","1905213","Yên Khánh District","20.19017","106.09605","ADM2","second-order administrative division","6295630|6255147|VN|59|1905213","Earth|Asia|Vietnam|Tỉnh Ninh Bình|Yên Khánh District","1","2"
"34128","34128_8239357","3","8239357","Yangon East District","16.87171","96.12894","ADM2","second-order administrative division","6295630|6255147|MM|17|8239357","Earth|Asia|Myanmar [Burma]|Yangon Region|Yangon East District","1","1"
"37190","37190_3665543","3","3665543","Zipaquirá","5.02632","-74.04206","ADM2","second-order administrative division","6295630|6255150|CO|33|3665543","Earth|South America|Colombia|Cundinamarca|Zipaquirá","1","1"
"35322","35322_7688807","3","7688807","Rulindo District","-1.73828","29.99794","ADM2","second-order administrative division","6295630|6255146|RW|13|7688807","Earth|Africa|Rwanda|Northern Province|Rulindo District","1","1"
"36076","36076_9998141","3","9998141","Rorya District Council","-1.28912","34.07161","ADM2","second-order administrative division","6295630|6255146|TZ|08|9998141","Earth|Africa|Tanzania|Mara|Rorya District Council","1","1"
"36219","36219_8643206","3","8643206","Masaka District","-0.36667","31.7","ADM2","second-order administrative division","6295630|6255146|UG|C|8643206","Earth|Africa|Uganda|Central Region|Masaka District","1","1"
"36215","36215_443339","3","443339","Kampala District","0.33508","32.58313","ADM2","second-order administrative division","6295630|6255146|UG|C|443339","Earth|Africa|Uganda|Central Region|Kampala District","1","1"
"12292","12292_7670611","3","7670611","Nyabikere","-3.26447","30.14118","ADM2","second-order administrative division","6295630|6255146|BI|14|7670611","Earth|Africa|Burundi|Karuzi Province|Nyabikere","1","1"
"12292","12292_7670927","3","7670927","Gihosha","-3.35826","29.3929","ADM2","second-order administrative division","6295630|6255146|BI|24|7670927","Earth|Africa|Burundi|Bujumbura Mairie Province|Gihosha","1","1"
"30060","30060_7670822","3","7670822","Ngozi","-2.94806","29.83045","ADM2","second-order administrative division","6295630|6255146|BI|19|7670822","Earth|Africa|Burundi|Ngozi Province|Ngozi","1","1"
"450","450_922772","3","922772","Kolwezi City","-10.70986","25.49927","ADM2","second-order administrative division","6295630|6255146|CD|05|922772","Earth|Africa|DR Congo|Katanga Province|Kolwezi City","1","1"
"19149","19149_205253","3","205253","Tanganika","-5.93333","29.2","ADM2","second-order administrative division","6295630|6255146|CD|05|205253","Earth|Africa|DR Congo|Katanga Province|Tanganika","1","1"
"19149","19149_2312894","3","2312894","Ville de Mbandaka","0.06667","18.26667","ADM2","second-order administrative division","6295630|6255146|CD|02|2312894","Earth|Africa|DR Congo|Province de l’Équateur|Ville de Mbandaka","1","1"
"19149","19149_7670837","3","7670837","Haut Katanga","-10.46044","27.94322","ADM2","second-order administrative division","6295630|6255146|CD|05|7670837","Earth|Africa|DR Congo|Katanga Province|Haut Katanga","1","1"
"239","239_7690205","3","7690205","Nyarugenge District","-1.99095","30.02127","ADM2","second-order administrative division","6295630|6255146|RW|12|7690205","Earth|Africa|Rwanda|Kigali|Nyarugenge District","1","1"
"955","955_7690205","3","7690205","Nyarugenge District","-1.99095","30.02127","ADM2","second-order administrative division","6295630|6255146|RW|12|7690205","Earth|Africa|Rwanda|Kigali|Nyarugenge District","1","1"
"1843","1843_7688803","3","7688803","Bugesera District","-2.23456","30.14825","ADM2","second-order administrative division","6295630|6255146|RW|11|7688803","Earth|Africa|Rwanda|Eastern Province|Bugesera District","1","1"
"1843","1843_7690205","3","7690205","Nyarugenge District","-1.99095","30.02127","ADM2","second-order administrative division","6295630|6255146|RW|12|7690205","Earth|Africa|Rwanda|Kigali|Nyarugenge District","1","1"
"1885","1885_7690204","3","7690204","Gasabo District","-1.8847","30.13141","ADM2","second-order administrative division","6295630|6255146|RW|12|7690204","Earth|Africa|Rwanda|Kigali|Gasabo District","1","1"
"1898","1898_7688800","3","7688800","Gatsibo District","-1.59185","30.45535","ADM2","second-order administrative division","6295630|6255146|RW|11|7688800","Earth|Africa|Rwanda|Eastern Province|Gatsibo District","1","1"
"1898","1898_7688807","3","7688807","Rulindo District","-1.73828","29.99794","ADM2","second-order administrative division","6295630|6255146|RW|13|7688807","Earth|Africa|Rwanda|Northern Province|Rulindo District","1","1"
"2014","2014_7690205","3","7690205","Nyarugenge District","-1.99095","30.02127","ADM2","second-order administrative division","6295630|6255146|RW|12|7690205","Earth|Africa|Rwanda|Kigali|Nyarugenge District","1","1"
"2023","2023_7690205","3","7690205","Nyarugenge District","-1.99095","30.02127","ADM2","second-order administrative division","6295630|6255146|RW|12|7690205","Earth|Africa|Rwanda|Kigali|Nyarugenge District","1","1"
"17115","17115_7688809","3","7688809","Musanze District","-1.50763","29.60662","ADM2","second-order administrative division","6295630|6255146|RW|13|7688809","Earth|Africa|Rwanda|Northern Province|Musanze District","1","1"
"17358","17358_7688803","3","7688803","Bugesera District","-2.23456","30.14825","ADM2","second-order administrative division","6295630|6255146|RW|11|7688803","Earth|Africa|Rwanda|Eastern Province|Bugesera District","1","1"
"30353","30353_7690209","3","7690209","Rubavu District","-1.68126","29.32932","ADM2","second-order administrative division","6295630|6255146|RW|14|7690209","Earth|Africa|Rwanda|Western Province|Rubavu District","1","1"
"30353","30353_7690212","3","7690212","Nyamasheke District","-2.36154","29.14791","ADM2","second-order administrative division","6295630|6255146|RW|14|7690212","Earth|Africa|Rwanda|Western Province|Nyamasheke District","1","1"
"30353","30353_7690211","3","7690211","Karongi District","-2.1296","29.36172","ADM2","second-order administrative division","6295630|6255146|RW|14|7690211","Earth|Africa|Rwanda|Western Province|Karongi District","1","1"
"30353","30353_7690213","3","7690213","Rusizi District","-2.57016","29.07535","ADM2","second-order administrative division","6295630|6255146|RW|14|7690213","Earth|Africa|Rwanda|Western Province|Rusizi District","1","1"
"2501","2501_443335","3","443335","Jinja District","0.511","33.315","ADM2","second-order administrative division","6295630|6255146|UG|E|443335","Earth|Africa|Uganda|Eastern Region|Jinja District","1","1"
"2501","2501_7910136","3","7910136","Butambala","0.13805","32.21826","ADM2","second-order administrative division","6295630|6255146|UG|C|7910136","Earth|Africa|Uganda|Central Region|Butambala","1","1"
"2505","2505_443355","3","443355","Mbarara District","-0.5","30.6","ADM2","second-order administrative division","6295630|6255146|UG|W|443355","Earth|Africa|Uganda|Western Region|Mbarara District","1","1"
"2517","2517_443339","3","443339","Kampala District","0.33508","32.58313","ADM2","second-order administrative division","6295630|6255146|UG|C|443339","Earth|Africa|Uganda|Central Region|Kampala District","1","1"
"11579","11579_443339","3","443339","Kampala District","0.33508","32.58313","ADM2","second-order administrative division","6295630|6255146|UG|C|443339","Earth|Africa|Uganda|Central Region|Kampala District","1","1"
"12513","12513_443787","3","443787","Sembabule District","-0.00825","31.35513","ADM2","second-order administrative division","6295630|6255146|UG|C|443787","Earth|Africa|Uganda|Central Region|Sembabule District","1","1"
"14235","14235_443339","3","443339","Kampala District","0.33508","32.58313","ADM2","second-order administrative division","6295630|6255146|UG|C|443339","Earth|Africa|Uganda|Central Region|Kampala District","1","1"
"14235","14235_448224","3","448224","Wakiso District","0.23763","32.47836","ADM2","second-order administrative division","6295630|6255146|UG|C|448224","Earth|Africa|Uganda|Central Region|Wakiso District","1","1"
"18672","18672_443353","3","443353","Mbale District","1.016","34.191","ADM2","second-order administrative division","6295630|6255146|UG|E|443353","Earth|Africa|Uganda|Eastern Region|Mbale District","1","1"
"18672","18672_443366","3","443366","Tororo District","0.75","34.08333","ADM2","second-order administrative division","6295630|6255146|UG|E|443366","Earth|Africa|Uganda|Eastern Region|Tororo District","1","1"
"30108","30108_443332","3","443332","Hoima District","1.393","31.11","ADM2","second-order administrative division","6295630|6255146|UG|W|443332","Earth|Africa|Uganda|Western Region|Hoima District","1","1"
"30108","30108_443330","3","443330","Bushenyi District","-0.491","30.183","ADM2","second-order administrative division","6295630|6255146|UG|W|443330","Earth|Africa|Uganda|Western Region|Bushenyi District","1","1"
"30108","30108_443335","3","443335","Jinja District","0.511","33.315","ADM2","second-order administrative division","6295630|6255146|UG|E|443335","Earth|Africa|Uganda|Eastern Region|Jinja District","1","1"
"30108","30108_443331","3","443331","Gulu District","2.85604","32.43001","ADM2","second-order administrative division","6295630|6255146|UG|N|443331","Earth|Africa|Uganda|Northern Region|Gulu District","1","1"
"30108","30108_443337","3","443337","Kabarole District","0.65454","30.28816","ADM2","second-order administrative division","6295630|6255146|UG|W|443337","Earth|Africa|Uganda|Western Region|Kabarole District","1","1"
"30108","30108_443336","3","443336","Kabale District","-1.20774","29.98588","ADM2","second-order administrative division","6295630|6255146|UG|W|443336","Earth|Africa|Uganda|Western Region|Kabale District","1","1"
"30108","30108_443342","3","443342","Kasese District","0.121","30.00777","ADM2","second-order administrative division","6295630|6255146|UG|W|443342","Earth|Africa|Uganda|Western Region|Kasese District","1","1"
"30108","30108_443339","3","443339","Kampala District","0.33508","32.58313","ADM2","second-order administrative division","6295630|6255146|UG|C|443339","Earth|Africa|Uganda|Central Region|Kampala District","1","1"
"30108","30108_443348","3","443348","Kumi District","1.5","33.95","ADM2","second-order administrative division","6295630|6255146|UG|E|443348","Earth|Africa|Uganda|Eastern Region|Kumi District","1","1"
"30108","30108_443349","3","443349","Lira District","2.274","32.953","ADM2","second-order administrative division","6295630|6255146|UG|N|443349","Earth|Africa|Uganda|Northern Region|Lira District","1","1"
"30108","30108_443350","3","443350","Luwero District","0.82","32.614","ADM2","second-order administrative division","6295630|6255146|UG|C|443350","Earth|Africa|Uganda|Central Region|Luwero District","1","1"
"30108","30108_443351","3","443351","Masindi District","1.569","31.743","ADM2","second-order administrative division","6295630|6255146|UG|W|443351","Earth|Africa|Uganda|Western Region|Masindi District","1","1"
"30108","30108_443353","3","443353","Mbale District","1.016","34.191","ADM2","second-order administrative division","6295630|6255146|UG|E|443353","Earth|Africa|Uganda|Eastern Region|Mbale District","1","1"
"30108","30108_443355","3","443355","Mbarara District","-0.5","30.6","ADM2","second-order administrative division","6295630|6255146|UG|W|443355","Earth|Africa|Uganda|Western Region|Mbarara District","1","1"
"30108","30108_443359","3","443359","Mukono District","0.3","32.775","ADM2","second-order administrative division","6295630|6255146|UG|C|443359","Earth|Africa|Uganda|Central Region|Mukono District","1","1"
"30108","30108_443361","3","443361","Ntungamo District","-0.93702","30.30483","ADM2","second-order administrative division","6295630|6255146|UG|W|443361","Earth|Africa|Uganda|Western Region|Ntungamo District","1","1"
"30108","30108_443363","3","443363","Rakai District","-0.75773","31.5099","ADM2","second-order administrative division","6295630|6255146|UG|C|443363","Earth|Africa|Uganda|Central Region|Rakai District","1","1"
"30108","30108_443365","3","443365","Soroti District","1.78481","33.59432","ADM2","second-order administrative division","6295630|6255146|UG|E|443365","Earth|Africa|Uganda|Eastern Region|Soroti District","1","1"
"30108","30108_443366","3","443366","Tororo District","0.75","34.08333","ADM2","second-order administrative division","6295630|6255146|UG|E|443366","Earth|Africa|Uganda|Eastern Region|Tororo District","1","1"
"30108","30108_443784","3","443784","Busia District","0.41762","34.00421","ADM2","second-order administrative division","6295630|6255146|UG|E|443784","Earth|Africa|Uganda|Eastern Region|Busia District","1","1"
"30108","30108_443782","3","443782","Adjumani District","3.25","31.75","ADM2","second-order administrative division","6295630|6255146|UG|N|443782","Earth|Africa|Uganda|Northern Region|Adjumani District","1","1"
"30108","30108_443786","3","443786","Nakasongola District","1.38903","32.41608","ADM2","second-order administrative division","6295630|6255146|UG|C|443786","Earth|Africa|Uganda|Central Region|Nakasongola District","1","1"
"30108","30108_448219","3","448219","Kyenjojo District","0.65696","30.6599","ADM2","second-order administrative division","6295630|6255146|UG|W|448219","Earth|Africa|Uganda|Western Region|Kyenjojo District","1","1"
"30108","30108_448224","3","448224","Wakiso District","0.23763","32.47836","ADM2","second-order administrative division","6295630|6255146|UG|C|448224","Earth|Africa|Uganda|Central Region|Wakiso District","1","1"
"30108","30108_8643206","3","8643206","Masaka District","-0.36667","31.7","ADM2","second-order administrative division","6295630|6255146|UG|C|8643206","Earth|Africa|Uganda|Central Region|Masaka District","1","1"
"1373","1373_7731058","3","7731058","Dodoma Urban District","-6.15973","35.798","ADM2","second-order administrative division","6295630|6255146|TZ|03|7731058","Earth|Africa|Tanzania|Dodoma|Dodoma Urban District","1","1"
"1843","1843_158596","3","158596","Kahama District","-3.84","32.58","ADM2","second-order administrative division","6295630|6255146|TZ|15|158596","Earth|Africa|Tanzania|Shinyanga|Kahama District","1","1"
"1919","1919_153246","3","153246","Monduli District","-3.0","36.366","ADM2","second-order administrative division","6295630|6255146|TZ|26|153246","Earth|Africa|Tanzania|Arusha|Monduli District","1","1"
"1919","1919_161327","3","161327","Arumeru District","-3.305","36.801","ADM2","second-order administrative division","6295630|6255146|TZ|26|161327","Earth|Africa|Tanzania|Arusha|Arumeru District","1","1"
"1934","1934_877400","3","877400","Songea Rural","-10.39061","35.40004","ADM2","second-order administrative division","6295630|6255146|TZ|14|877400","Earth|Africa|Tanzania|Ruvuma|Songea Rural","1","1"
"14393","14393_157408","3","157408","Kilombero District Council","-8.24137","36.33492","ADM2","second-order administrative division","6295630|6255146|TZ|10|157408","Earth|Africa|Tanzania|Morogoro|Kilombero District Council","1","1"
"14393","14393_159239","3","159239","Ilala District","-6.91805","39.16254","ADM2","second-order administrative division","6295630|6255146|TZ|23|159239","Earth|Africa|Tanzania|Dar es Salaam Region|Ilala District","1","1"
"23150","23150_149654","3","149654","Tabora District","-5.02","32.83","ADM2","second-order administrative division","6295630|6255146|TZ|17|149654","Earth|Africa|Tanzania|Tabora|Tabora District","1","1"
"23150","23150_149702","3","149702","Sumbawanga District Council","-8.18604","31.93899","ADM2","second-order administrative division","6295630|6255146|TZ|24|149702","Earth|Africa|Tanzania|Rukwa|Sumbawanga District Council","1","1"
"23150","23150_150412","3","150412","Rungwe District Council","-9.2355","33.69034","ADM2","second-order administrative division","6295630|6255146|TZ|09|150412","Earth|Africa|Tanzania|Mbeya|Rungwe District Council","1","1"
"23150","23150_154331","3","154331","Mbozi District Council","-8.94565","32.92613","ADM2","second-order administrative division","6295630|6255146|TZ|09|154331","Earth|Africa|Tanzania|Mbeya|Mbozi District Council","1","1"
"23150","23150_154379","3","154379","Mbeya District Council","-8.96167","33.35659","ADM2","second-order administrative division","6295630|6255146|TZ|09|154379","Earth|Africa|Tanzania|Mbeya|Mbeya District Council","1","1"
"23150","23150_157383","3","157383","Kilwa District","-9.03945","39.04456","ADM2","second-order administrative division","6295630|6255146|TZ|07|157383","Earth|Africa|Tanzania|Lindi|Kilwa District","1","1"
"23150","23150_157736","3","157736","Kigoma Rural","-4.69029","29.71143","ADM2","second-order administrative division","6295630|6255146|TZ|05|157736","Earth|Africa|Tanzania|Kigoma|Kigoma Rural","1","1"
"23150","23150_159239","3","159239","Ilala District","-6.91805","39.16254","ADM2","second-order administrative division","6295630|6255146|TZ|23|159239","Earth|Africa|Tanzania|Dar es Salaam Region|Ilala District","1","1"
"23150","23150_159221","3","159221","Ileje District Council","-9.41667","33.33333","ADM2","second-order administrative division","6295630|6255146|TZ|09|159221","Earth|Africa|Tanzania|Mbeya|Ileje District Council","1","1"
"23150","23150_160321","3","160321","Chunya District Council","-7.7678","33.16417","ADM2","second-order administrative division","6295630|6255146|TZ|09|160321","Earth|Africa|Tanzania|Mbeya|Chunya District Council","1","1"
"23150","23150_7647511","3","7647511","Mbarali district","-8.85","33.85","ADM2","second-order administrative division","6295630|6255146|TZ|09|7647511","Earth|Africa|Tanzania|Mbeya|Mbarali district","1","1"
"23150","23150_7647665","3","7647665","Lindi Rural","-9.68333","39.55","ADM2","second-order administrative division","6295630|6255146|TZ|07|7647665","Earth|Africa|Tanzania|Lindi|Lindi Rural","1","1"
"23150","23150_7647667","3","7647667","Ruangwa","-10.06667","38.93333","ADM2","second-order administrative division","6295630|6255146|TZ|07|7647667","Earth|Africa|Tanzania|Lindi|Ruangwa","1","1"
"23150","23150_7648510","3","7648510","Namtumbo","-10.46642","36.13009","ADM2","second-order administrative division","6295630|6255146|TZ|14|7648510","Earth|Africa|Tanzania|Ruvuma|Namtumbo","1","1"
"23150","23150_877400","3","877400","Songea Rural","-10.39061","35.40004","ADM2","second-order administrative division","6295630|6255146|TZ|14|877400","Earth|Africa|Tanzania|Ruvuma|Songea Rural","1","1"
"23150","23150_877745","3","877745","Mtwara District Council","-10.47941","39.98807","ADM2","second-order administrative division","6295630|6255146|TZ|11|877745","Earth|Africa|Tanzania|Mtwara|Mtwara District Council","1","1"
"23150","23150_878280","3","878280","Lindi Urban","-10.0","39.33333","ADM2","second-order administrative division","6295630|6255146|TZ|07|878280","Earth|Africa|Tanzania|Lindi|Lindi Urban","1","1"
"23288","23288_155356","3","155356","Zanzibar West","-6.16667","39.25","ADM2","second-order administrative division","6295630|6255146|TZ|25|155356","Earth|Africa|Tanzania|Zanzibar Urban/West|Zanzibar West","1","1"
"23296","23296_156810","3","156810","Kiteto District Council","-5.24047","36.69538","ADM2","second-order administrative division","6295630|6255146|TZ|27|156810","Earth|Africa|Tanzania|Manyara|Kiteto District Council","1","1"
"30711","30711_877533","3","877533","Newala District Council","-10.72487","39.27979","ADM2","second-order administrative division","6295630|6255146|TZ|11|877533","Earth|Africa|Tanzania|Mtwara|Newala District Council","1","1"
"35971","35971_3924165","2","3924165","Altiplano","-18.0","-68.0","PLAT","plateau","6295630|6255150|BO|00","Earth|South America|Bolivia|Altiplano","4","2"
"37478","37478_3486270","1","3486270","Anaco","9.43889","-64.47278","PPLA2","seat of a second-order administrative division","6295630|6255150|VE|02|3649281|3486270","Earth|South America|Venezuela|Anzoátegui|Municipio Anaco|Anaco","2","1"
"35881","35881_3486270","1","3486270","Anaco","9.43889","-64.47278","PPLA2","seat of a second-order administrative division","6295630|6255150|VE|02|3649281|3486270","Earth|South America|Venezuela|Anzoátegui|Municipio Anaco|Anaco","2","1"
"35881","35881_3649100","1","3649100","Aragua de Barcelona","9.45588","-64.82928","PPLA2","seat of a second-order administrative division","6295630|6255150|VE|02|3649111|3649100","Earth|South America|Venezuela|Anzoátegui|Municipio Aragua|Aragua de Barcelona","2","1"
"35881","35881_3645944","1","3645944","Chaguaramas","9.33855","-66.25255","PPLA2","seat of a second-order administrative division","6295630|6255150|VE|12|8129191|3645944","Earth|South America|Venezuela|Guárico|Municipio Chaguaramas|Chaguaramas","2","1"
"37541","37541_3645528","1","3645528","Ciudad Guayana","8.35122","-62.64102","PPLA2","seat of a second-order administrative division","6295630|6255150|VE|06|3646491|3645528","Earth|South America|Venezuela|Bolívar|Municipio Caroní|Ciudad Guayana","2","1"
"35881","35881_3642260","1","3642260","El Pao","9.63752","-68.12884","PPLA2","seat of a second-order administrative division","6295630|6255150|VE|08|8129190|3642260","Earth|South America|Venezuela|Cojedes|Municipio Pao de San Juan Bautista|El Pao","2","1"
"35881","35881_3641440","1","3641440","El Sombrero","9.3863","-67.05818","PPLA2","seat of a second-order administrative division","6295630|6255150|VE|12|8129245|3641440","Earth|South America|Venezuela|Guárico|Municipio Julián Mellado|El Sombrero","2","1"
"37833","37833_3641099","1","3641099","El Vigía","8.61366","-71.65284","PPLA2","seat of a second-order administrative division","6295630|6255150|VE|14|3649500|3641099","Earth|South America|Venezuela|Mérida|Municipio Alberto Adriani|El Vigía","2","1"
"37807","37807_3641099","1","3641099","El Vigía","8.61366","-71.65284","PPLA2","seat of a second-order administrative division","6295630|6255150|VE|14|3649500|3641099","Earth|South America|Venezuela|Mérida|Municipio Alberto Adriani|El Vigía","2","1"
"37829","37829_3642390","1","3642390","Elorza","7.06088","-69.49765","PPLA2","seat of a second-order administrative division","6295630|6255150|VE|03|3628986|3642390","Earth|South America|Venezuela|Apure|Municipio Rómulo Gallegos|Elorza","2","1"
"38906","38906_1610780","1","1610780","Hat Yai","7.00836","100.47668","PPLA2","seat of a second-order administrative division","6295630|6255147|TH|68|1610780","Earth|Asia|Thailand|Changwat Songkhla|Hat Yai","2","1"
"37833","37833_3631878","1","3631878","Morón","10.48889","-68.20028","PPLA2","seat of a second-order administrative division","6295630|6255150|VE|07|8129172|3631878","Earth|South America|Venezuela|Carabobo|Municipio Juan José Mora|Morón","2","1"
"37496","37496_3631878","1","3631878","Morón","10.48889","-68.20028","PPLA2","seat of a second-order administrative division","6295630|6255150|VE|07|8129172|3631878","Earth|South America|Venezuela|Carabobo|Municipio Juan José Mora|Morón","2","1"
"34474","34474_1570656","1","1570656","Phúc Yên","21.23695","105.70483","PPLA2","seat of a second-order administrative division","6295630|6255147|VN|86|1570656","Earth|Asia|Vietnam|Tỉnh Vĩnh Phúc|Phúc Yên","2","1"
"37478","37478_3626235","1","3626235","Tinaco","9.69871","-68.43348","PPLA2","seat of a second-order administrative division","6295630|6255150|VE|08|3626234|3626235","Earth|South America|Venezuela|Cojedes|Municipio Tinaco|Tinaco","2","1"
"35881","35881_3626235","1","3626235","Tinaco","9.69871","-68.43348","PPLA2","seat of a second-order administrative division","6295630|6255150|VE|08|3626234|3626235","Earth|South America|Venezuela|Cojedes|Municipio Tinaco|Tinaco","2","1"
"35881","35881_3625515","1","3625515","Valle de La Pascua","9.21554","-66.00734","PPLA2","seat of a second-order administrative division","6295630|6255150|VE|12|8129179|3625515","Earth|South America|Venezuela|Guárico|Municipio Leonardo Infante|Valle de La Pascua","2","1"
"33809","33809_1655073","1","1655073","Xiang Ngeun","19.75532","102.17891","PPLA2","seat of a second-order administrative division","6295630|6255147|LA|17|1655073","Earth|Asia|Laos|Luang Prabang Province|Xiang Ngeun","2","1"
"35881","35881_3625066","1","3625066","Zaraza","9.35029","-65.32452","PPLA2","seat of a second-order administrative division","6295630|6255150|VE|12|8129261|3625066","Earth|South America|Venezuela|Guárico|Municipio Pedro Zaraza|Zaraza","2","1"
"2502","2502_229278","1","229278","Mbale","1.08209","34.17503","PPLA2","seat of a second-order administrative division","6295630|6255146|UG|E|443353|229278","Earth|Africa|Uganda|Eastern Region|Mbale District|Mbale","1","2"
"2502","2502_229380","1","229380","Masaka","-0.33379","31.73409","PPLA2","seat of a second-order administrative division","6295630|6255146|UG|C|229380","Earth|Africa|Uganda|Central Region|Masaka","1","2"
"12513","12513_226361","1","226361","Sembabule","-0.07722","31.45667","PPLA2","seat of a second-order administrative division","6295630|6255146|UG|C|443787|226361","Earth|Africa|Uganda|Central Region|Sembabule District|Sembabule","1","2"
"30108","30108_226110","1","226110","Tororo","0.69299","34.18085","PPLA2","seat of a second-order administrative division","6295630|6255146|UG|E|443366|226110","Earth|Africa|Uganda|Eastern Region|Tororo District|Tororo","1","2"
"30108","30108_226234","1","226234","Soroti","1.71464","33.61113","PPLA2","seat of a second-order administrative division","6295630|6255146|UG|E|443365|226234","Earth|Africa|Uganda|Eastern Region|Soroti District|Soroti","1","2"
"30108","30108_227593","1","227593","Ntungamo","-0.87944","30.26417","PPLA2","seat of a second-order administrative division","6295630|6255146|UG|W|443361|227593","Earth|Africa|Uganda|Western Region|Ntungamo District|Ntungamo","1","2"
"30108","30108_228418","1","228418","Nakasongola","1.30889","32.45639","PPLA2","seat of a second-order administrative division","6295630|6255146|UG|C|443786|228418","Earth|Africa|Uganda|Central Region|Nakasongola District|Nakasongola","1","2"
"30108","30108_228853","1","228853","Mukono","0.35333","32.75528","PPLA2","seat of a second-order administrative division","6295630|6255146|UG|C|443359|228853","Earth|Africa|Uganda|Central Region|Mukono District|Mukono","1","2"
"30108","30108_229278","1","229278","Mbale","1.08209","34.17503","PPLA2","seat of a second-order administrative division","6295630|6255146|UG|E|443353|229278","Earth|Africa|Uganda|Eastern Region|Mbale District|Mbale","1","2"
"30108","30108_229362","1","229362","Masindi","1.67444","31.715","PPLA2","seat of a second-order administrative division","6295630|6255146|UG|W|443351|229362","Earth|Africa|Uganda|Western Region|Masindi District|Masindi","1","2"
"30108","30108_229380","1","229380","Masaka","-0.33379","31.73409","PPLA2","seat of a second-order administrative division","6295630|6255146|UG|C|229380","Earth|Africa|Uganda|Central Region|Masaka","1","2"
"30108","30108_229746","1","229746","Luwero","0.84917","32.47306","PPLA2","seat of a second-order administrative division","6295630|6255146|UG|C|443350|229746","Earth|Africa|Uganda|Central Region|Luwero District|Luwero","1","2"
"30108","30108_230166","1","230166","Lira","2.2499","32.89985","PPLA2","seat of a second-order administrative division","6295630|6255146|UG|N|443349|230166","Earth|Africa|Uganda|Northern Region|Lira District|Lira","1","2"
"30108","30108_230299","1","230299","Kyenjojo","0.63278","30.62139","PPLA2","seat of a second-order administrative division","6295630|6255146|UG|W|448219|230299","Earth|Africa|Uganda|Western Region|Kyenjojo District|Kyenjojo","1","2"
"30108","30108_230584","1","230584","Kumi","1.46083","33.93611","PPLA2","seat of a second-order administrative division","6295630|6255146|UG|E|443348|230584","Earth|Africa|Uganda|Eastern Region|Kumi District|Kumi","1","2"
"30108","30108_232066","1","232066","Kasese","0.18333","30.08333","PPLA2","seat of a second-order administrative division","6295630|6255146|UG|W|443342|232066","Earth|Africa|Uganda|Western Region|Kasese District|Kasese","1","2"
"30108","30108_233070","1","233070","Kabale","-1.24857","29.98993","PPLA2","seat of a second-order administrative division","6295630|6255146|UG|W|443336|233070","Earth|Africa|Uganda|Western Region|Kabale District|Kabale","1","2"
"30108","30108_233312","1","233312","Hoima","1.43314","31.35241","PPLA2","seat of a second-order administrative division","6295630|6255146|UG|W|443332|233312","Earth|Africa|Uganda|Western Region|Hoima District|Hoima","1","2"
"30108","30108_233476","1","233476","Fort Portal","0.66174","30.2748","PPLA2","seat of a second-order administrative division","6295630|6255146|UG|W|443337|233476","Earth|Africa|Uganda|Western Region|Kabarole District|Fort Portal","1","2"
"30108","30108_234077","1","234077","Busia","0.46588","34.09221","PPLA2","seat of a second-order administrative division","6295630|6255146|UG|E|443784|234077","Earth|Africa|Uganda|Eastern Region|Busia District|Busia","1","2"
"30108","30108_234081","1","234081","Bushenyi","-0.53695","30.18579","PPLA2","seat of a second-order administrative division","6295630|6255146|UG|W|443330|234081","Earth|Africa|Uganda|Western Region|Bushenyi District|Bushenyi","1","2"
"1919","1919_155848","1","155848","Longido","-2.73319","36.69773","PPLA2","seat of a second-order administrative division","6295630|6255146|TZ|26|8693317|155848","Earth|Africa|Tanzania|Arusha|Longido District|Longido","1","2"
"32161","32161_1831948","1","1831948","Angkor Wat","13.41237","103.86661","RUIN","ruin(s)","6295630|6255147|KH|24|1831948","Earth|Asia|Cambodia|Siem Reap|Angkor Wat","3","1"
"32062","32062_1831948","1","1831948","Angkor Wat","13.41237","103.86661","RUIN","ruin(s)","6295630|6255147|KH|24|1831948","Earth|Asia|Cambodia|Siem Reap|Angkor Wat","3","1"
"32159","32159_1831948","1","1831948","Angkor Wat","13.41237","103.86661","RUIN","ruin(s)","6295630|6255147|KH|24|1831948","Earth|Asia|Cambodia|Siem Reap|Angkor Wat","3","1"
"38785","38785_1822719","1","1822719","Prasat Preăh Vihéar","14.39086","104.68059","RUIN","ruin(s)","6295630|6255147|KH|13|1822719","Earth|Asia|Cambodia|Preah Vihear|Prasat Preăh Vihéar","3","1"
"36548","36548_3689815","4","3689815","Antioquia","7.0","-75.5","ADM1","first-order administrative division","6295630|6255150|CO|02","Earth|South America|Colombia|Antioquia","1","1"
"37496","37496_3649198","4","3649198","Anzoátegui","9.0","-64.33333","ADM1","first-order administrative division","6295630|6255150|VE|02","Earth|South America|Venezuela|Anzoátegui","1","1"
"37829","37829_3649151","4","3649151","Apure","7.16667","-68.83333","ADM1","first-order administrative division","6295630|6255150|VE|03","Earth|South America|Venezuela|Apure","1","1"
"37518","37518_3947421","4","3947421","Apurimac","-14.0","-73.0","ADM1","first-order administrative division","6295630|6255150|PE|03","Earth|South America|Peru|Apurimac","1","1"
"35881","35881_3649110","4","3649110","Aragua","10.0","-67.16667","ADM1","first-order administrative division","6295630|6255150|VE|04","Earth|South America|Venezuela|Aragua","1","1"
"32996","32996_161322","4","161322","Arusha","-3.0","36.0","ADM1","first-order administrative division","6295630|6255146|TZ|26","Earth|Africa|Tanzania|Arusha","1","1"
"35709","35709_1665045","4","1665045","Attapu","14.66667","107.0","ADM1","first-order administrative division","6295630|6255147|LA|01","Earth|Asia|Laos|Attapu","1","1"
"34130","34130_1321850","4","1321850","Ayeyawady Region","17.0","95.0","ADM1","first-order administrative division","6295630|6255147|MM|03","Earth|Asia|Myanmar [Burma]|Ayeyawady Region","1","1"
"35570","35570_1822210","4","1822210","Ŏtâr Méanchey","14.16667","103.5","ADM1","first-order administrative division","6295630|6255147|KH|27","Earth|Asia|Cambodia|Ŏtâr Méanchey","1","2"
"35568","35568_1822210","4","1822210","Ŏtâr Méanchey","14.16667","103.5","ADM1","first-order administrative division","6295630|6255147|KH|27","Earth|Asia|Cambodia|Ŏtâr Méanchey","1","1"
"38742","38742_1822210","4","1822210","Ŏtâr Méanchey","14.16667","103.5","ADM1","first-order administrative division","6295630|6255147|KH|27","Earth|Asia|Cambodia|Ŏtâr Méanchey","1","1"
"34130","34130_1300463","4","1300463","Bago Region","18.25","96.25","ADM1","first-order administrative division","6295630|6255147|MM|16","Earth|Asia|Myanmar [Burma]|Bago Region","1","1"
"34309","34309_1609348","4","1609348","Bangkok","13.87719","100.71991","ADM1","first-order administrative division","6295630|6255147|TH|40","Earth|Asia|Thailand|Bangkok","1","1"
"38559","38559_1609348","4","1609348","Bangkok","13.87719","100.71991","ADM1","first-order administrative division","6295630|6255147|TH|40","Earth|Asia|Thailand|Bangkok","1","1"
"35570","35570_1899273","4","1899273","Banteay Meanchey","13.75","103.0","ADM1","first-order administrative division","6295630|6255147|KH|25","Earth|Asia|Cambodia|Banteay Meanchey","1","2"
"35568","35568_1899273","4","1899273","Banteay Meanchey","13.75","103.0","ADM1","first-order administrative division","6295630|6255147|KH|25","Earth|Asia|Cambodia|Banteay Meanchey","1","1"
"32168","32168_1899273","4","1899273","Banteay Meanchey","13.75","103.0","ADM1","first-order administrative division","6295630|6255147|KH|25","Earth|Asia|Cambodia|Banteay Meanchey","1","1"
"32142","32142_1899273","4","1899273","Banteay Meanchey","13.75","103.0","ADM1","first-order administrative division","6295630|6255147|KH|25","Earth|Asia|Cambodia|Banteay Meanchey","1","1"
"32169","32169_1899273","4","1899273","Banteay Meanchey","13.75","103.0","ADM1","first-order administrative division","6295630|6255147|KH|25","Earth|Asia|Cambodia|Banteay Meanchey","1","1"
"38742","38742_1899273","4","1899273","Banteay Meanchey","13.75","103.0","ADM1","first-order administrative division","6295630|6255147|KH|25","Earth|Asia|Cambodia|Banteay Meanchey","1","1"
"38146","38146_3648544","4","3648544","Barinas","8.16667","-69.83333","ADM1","first-order administrative division","6295630|6255150|VE|05","Earth|South America|Venezuela|Barinas","1","1"
"37829","37829_3648544","4","3648544","Barinas","8.16667","-69.83333","ADM1","first-order administrative division","6295630|6255150|VE|05","Earth|South America|Venezuela|Barinas","1","1"
"37542","37542_3648544","4","3648544","Barinas","8.16667","-69.83333","ADM1","first-order administrative division","6295630|6255150|VE|05","Earth|South America|Venezuela|Barinas","1","1"
"32105","32105_1821310","4","1821310","Battambang","12.91667","103.08333","ADM1","first-order administrative division","6295630|6255147|KH|29","Earth|Asia|Cambodia|Battambang","1","1"
"38795","38795_1821310","4","1821310","Battambang","12.91667","103.08333","ADM1","first-order administrative division","6295630|6255147|KH|29","Earth|Asia|Cambodia|Battambang","1","1"
"32168","32168_1821310","4","1821310","Battambang","12.91667","103.08333","ADM1","first-order administrative division","6295630|6255147|KH|29","Earth|Asia|Cambodia|Battambang","1","1"
"32169","32169_1821310","4","1821310","Battambang","12.91667","103.08333","ADM1","first-order administrative division","6295630|6255147|KH|29","Earth|Asia|Cambodia|Battambang","1","1"
"38742","38742_1821310","4","1821310","Battambang","12.91667","103.08333","ADM1","first-order administrative division","6295630|6255147|KH|29","Earth|Asia|Cambodia|Battambang","1","1"
"38147","38147_3648106","4","3648106","Bolívar","6.33333","-63.5","ADM1","first-order administrative division","6295630|6255150|VE|06","Earth|South America|Venezuela|Bolívar","1","1"
"37940","37940_3648106","4","3648106","Bolívar","6.33333","-63.5","ADM1","first-order administrative division","6295630|6255150|VE|06","Earth|South America|Venezuela|Bolívar","1","1"
"38146","38146_3648106","4","3648106","Bolívar","6.33333","-63.5","ADM1","first-order administrative division","6295630|6255150|VE|06","Earth|South America|Venezuela|Bolívar","1","1"
"38318","38318_3648106","4","3648106","Bolívar","6.33333","-63.5","ADM1","first-order administrative division","6295630|6255150|VE|06","Earth|South America|Venezuela|Bolívar","1","1"
"38293","38293_3648106","4","3648106","Bolívar","6.33333","-63.5","ADM1","first-order administrative division","6295630|6255150|VE|06","Earth|South America|Venezuela|Bolívar","1","1"
"38146","38146_3646751","4","3646751","Carabobo","10.16667","-68.08333","ADM1","first-order administrative division","6295630|6255150|VE|07","Earth|South America|Venezuela|Carabobo","1","1"
"33801","33801_1153668","4","1153668","Changwat Chiang Rai","19.91667","99.91667","ADM1","first-order administrative division","6295630|6255147|TH|03","Earth|Asia|Thailand|Changwat Chiang Rai","1","1"
"38559","38559_1608528","4","1608528","Changwat Nakhon Ratchasima","15.0","102.16667","ADM1","first-order administrative division","6295630|6255147|TH|27","Earth|Asia|Thailand|Changwat Nakhon Ratchasima","1","1"
"38559","38559_1608231","4","1608231","Changwat Nong Khai","17.75","102.75","ADM1","first-order administrative division","6295630|6255147|TH|17","Earth|Asia|Thailand|Changwat Nong Khai","1","1"
"34068","34068_1906687","4","1906687","Changwat Prachin Buri","14.08333","101.66667","ADM1","first-order administrative division","6295630|6255147|TH|74","Earth|Asia|Thailand|Changwat Prachin Buri","1","1"
"38559","38559_1607016","4","1607016","Changwat Rayong","12.83333","101.43333","ADM1","first-order administrative division","6295630|6255147|TH|47","Earth|Asia|Thailand|Changwat Rayong","1","1"
"34204","34204_1606146","4","1606146","Changwat Songkhla","6.83333","100.66667","ADM1","first-order administrative division","6295630|6255147|TH|68","Earth|Asia|Thailand|Changwat Songkhla","1","1"
"37478","37478_3645386","4","3645386","Cojedes","9.33333","-68.33333","ADM1","first-order administrative division","6295630|6255150|VE|08","Earth|South America|Venezuela|Cojedes","1","1"
"38146","38146_3645386","4","3645386","Cojedes","9.33333","-68.33333","ADM1","first-order administrative division","6295630|6255150|VE|08","Earth|South America|Venezuela|Cojedes","1","1"
"37829","37829_3644541","4","3644541","Delta Amacuro","8.75","-61.33333","ADM1","first-order administrative division","6295630|6255150|VE|09","Earth|South America|Venezuela|Delta Amacuro","1","1"
"36548","36548_3688650","4","3688650","Departamento de Bolívar","9.0","-74.33333","ADM1","first-order administrative division","6295630|6255150|CO|35","Earth|South America|Colombia|Departamento de Bolívar","1","1"
"36548","36548_3685889","4","3685889","Departamento de Córdoba","8.33333","-75.66667","ADM1","first-order administrative division","6295630|6255150|CO|12","Earth|South America|Colombia|Departamento de Córdoba","1","1"
"35958","35958_3919966","4","3919966","Departamento de Cochabamba","-17.5","-65.66667","ADM1","first-order administrative division","6295630|6255150|BO|02","Earth|South America|Bolivia|Departamento de Cochabamba","1","1"
"36121","36121_3911924","4","3911924","Departamento de La Paz","-15.5","-68.0","ADM1","first-order administrative division","6295630|6255150|BO|04","Earth|South America|Bolivia|Departamento de La Paz","1","1"
"35958","35958_3911924","4","3911924","Departamento de La Paz","-15.5","-68.0","ADM1","first-order administrative division","6295630|6255150|BO|04","Earth|South America|Bolivia|Departamento de La Paz","1","1"
"35958","35958_3908600","4","3908600","Departamento de Pando","-11.33333","-67.66667","ADM1","first-order administrative division","6295630|6255150|BO|06","Earth|South America|Bolivia|Departamento de Pando","1","1"
"35958","35958_3904907","4","3904907","Departamento de Santa Cruz","-17.5","-61.5","ADM1","first-order administrative division","6295630|6255150|BO|08","Earth|South America|Bolivia|Departamento de Santa Cruz","1","1"
"35999","35999_3904907","4","3904907","Departamento de Santa Cruz","-17.5","-61.5","ADM1","first-order administrative division","6295630|6255150|BO|08","Earth|South America|Bolivia|Departamento de Santa Cruz","1","1"
"36548","36548_3667725","4","3667725","Departamento de Sucre","9.0","-75.0","ADM1","first-order administrative division","6295630|6255150|CO|27","Earth|South America|Colombia|Departamento de Sucre","1","1"
"35772","35772_3903319","4","3903319","Departamento de Tarija","-21.5","-64.0","ADM1","first-order administrative division","6295630|6255150|BO|09","Earth|South America|Bolivia|Departamento de Tarija","1","1"
"35958","35958_3903319","4","3903319","Departamento de Tarija","-21.5","-64.0","ADM1","first-order administrative division","6295630|6255150|BO|09","Earth|South America|Bolivia|Departamento de Tarija","1","1"
"36027","36027_3903319","4","3903319","Departamento de Tarija","-21.5","-64.0","ADM1","first-order administrative division","6295630|6255150|BO|09","Earth|South America|Bolivia|Departamento de Tarija","1","1"
"36548","36548_3686431","4","3686431","Departamento del Chocó","6.0","-77.0","ADM1","first-order administrative division","6295630|6255150|CO|11","Earth|South America|Colombia|Departamento del Chocó","1","1"
"36792","36792_3674810","4","3674810","Departamento del Meta","3.5","-73.0","ADM1","first-order administrative division","6295630|6255150|CO|19","Earth|South America|Colombia|Departamento del Meta","1","2"
"37442","37442_3640873","4","3640873","Falcón","11.0","-69.83333","ADM1","first-order administrative division","6295630|6255150|VE|11","Earth|South America|Venezuela|Falcón","1","1"
"37478","37478_3640017","4","3640017","Guárico","8.66667","-66.58333","ADM1","first-order administrative division","6295630|6255150|VE|12","Earth|South America|Venezuela|Guárico","1","1"
"37290","37290_3640017","4","3640017","Guárico","8.66667","-66.58333","ADM1","first-order administrative division","6295630|6255150|VE|12","Earth|South America|Venezuela|Guárico","1","1"
"35881","35881_3640017","4","3640017","Guárico","8.66667","-66.58333","ADM1","first-order administrative division","6295630|6255150|VE|12","Earth|South America|Venezuela|Guárico","1","1"
"37829","37829_3640017","4","3640017","Guárico","8.66667","-66.58333","ADM1","first-order administrative division","6295630|6255150|VE|12","Earth|South America|Venezuela|Guárico","1","1"
"38903","38903_1580578","4","1580578","Saigon","10.82327","106.62978","ADM1","first-order administrative division","6295630|6255147|VN|20","Earth|Asia|Vietnam|Saigon","1","1"
"34683","34683_1580578","4","1580578","Saigon","10.82327","106.62978","ADM1","first-order administrative division","6295630|6255147|VN|20","Earth|Asia|Vietnam|Saigon","1","1"
"32202","32202_1831037","4","1831037","Koh Kong","11.5","103.5","ADM1","first-order administrative division","6295630|6255147|KH|08","Earth|Asia|Cambodia|Koh Kong","1","1"
"38434","38434_1321702","4","1321702","Kachin State","26.0","97.5","ADM1","first-order administrative division","6295630|6255147|MM|04","Earth|Asia|Myanmar [Burma]|Kachin State","1","1"
"38532","38532_1321702","4","1321702","Kachin State","26.0","97.5","ADM1","first-order administrative division","6295630|6255147|MM|04","Earth|Asia|Myanmar [Burma]|Kachin State","1","1"
"30586","30586_148679","4","148679","Kagera","-1.91667","31.25","ADM1","first-order administrative division","6295630|6255146|TZ|19","Earth|Africa|Tanzania|Kagera","1","2"
"32040","32040_1831172","4","1831172","Kampong Cham","12.05","105.25","ADM1","first-order administrative division","6295630|6255147|KH|02","Earth|Asia|Cambodia|Kampong Cham","1","1"
"38793","38793_1831172","4","1831172","Kampong Cham","12.05","105.25","ADM1","first-order administrative division","6295630|6255147|KH|02","Earth|Asia|Cambodia|Kampong Cham","1","1"
"32160","32160_1831172","4","1831172","Kampong Cham","12.05","105.25","ADM1","first-order administrative division","6295630|6255147|KH|02","Earth|Asia|Cambodia|Kampong Cham","1","1"
"32209","32209_1831172","4","1831172","Kampong Cham","12.05","105.25","ADM1","first-order administrative division","6295630|6255147|KH|02","Earth|Asia|Cambodia|Kampong Cham","1","1"
"39178","39178_1831172","4","1831172","Kampong Cham","12.05","105.25","ADM1","first-order administrative division","6295630|6255147|KH|02","Earth|Asia|Cambodia|Kampong Cham","1","1"
"32216","32216_1831172","4","1831172","Kampong Cham","12.05","105.25","ADM1","first-order administrative division","6295630|6255147|KH|02","Earth|Asia|Cambodia|Kampong Cham","1","1"
"32016","32016_1831172","4","1831172","Kampong Cham","12.05","105.25","ADM1","first-order administrative division","6295630|6255147|KH|02","Earth|Asia|Cambodia|Kampong Cham","1","1"
"38742","38742_1831172","4","1831172","Kampong Cham","12.05","105.25","ADM1","first-order administrative division","6295630|6255147|KH|02","Earth|Asia|Cambodia|Kampong Cham","1","1"
"32040","32040_1831166","4","1831166","Kampong Chhnang","12.16667","104.55","ADM1","first-order administrative division","6295630|6255147|KH|03","Earth|Asia|Cambodia|Kampong Chhnang","1","1"
"35569","35569_1831166","4","1831166","Kampong Chhnang","12.16667","104.55","ADM1","first-order administrative division","6295630|6255147|KH|03","Earth|Asia|Cambodia|Kampong Chhnang","1","1"
"38742","38742_1831166","4","1831166","Kampong Chhnang","12.16667","104.55","ADM1","first-order administrative division","6295630|6255147|KH|03","Earth|Asia|Cambodia|Kampong Chhnang","1","1"
"32040","32040_1831132","4","1831132","Kampong Speu","11.5","104.33333","ADM1","first-order administrative division","6295630|6255147|KH|04","Earth|Asia|Cambodia|Kampong Speu","1","1"
"32209","32209_1831132","4","1831132","Kampong Speu","11.5","104.33333","ADM1","first-order administrative division","6295630|6255147|KH|04","Earth|Asia|Cambodia|Kampong Speu","1","1"
"32133","32133_1831132","4","1831132","Kampong Speu","11.5","104.33333","ADM1","first-order administrative division","6295630|6255147|KH|04","Earth|Asia|Cambodia|Kampong Speu","1","1"
"32216","32216_1831132","4","1831132","Kampong Speu","11.5","104.33333","ADM1","first-order administrative division","6295630|6255147|KH|04","Earth|Asia|Cambodia|Kampong Speu","1","1"
"38742","38742_1831132","4","1831132","Kampong Speu","11.5","104.33333","ADM1","first-order administrative division","6295630|6255147|KH|04","Earth|Asia|Cambodia|Kampong Speu","1","1"
"38742","38742_1831124","4","1831124","Kampong Thom","12.83333","105.0","ADM1","first-order administrative division","6295630|6255147|KH|05","Earth|Asia|Cambodia|Kampong Thom","1","1"
"32040","32040_1831111","4","1831111","Kampot","10.83333","104.33333","ADM1","first-order administrative division","6295630|6255147|KH|21","Earth|Asia|Cambodia|Kampot","1","1"
"35595","35595_1831111","4","1831111","Kampot","10.83333","104.33333","ADM1","first-order administrative division","6295630|6255147|KH|21","Earth|Asia|Cambodia|Kampot","1","1"
"38742","38742_1831111","4","1831111","Kampot","10.83333","104.33333","ADM1","first-order administrative division","6295630|6255147|KH|21","Earth|Asia|Cambodia|Kampot","1","1"
"32113","32113_1831095","4","1831095","Kandal","11.41667","105.0","ADM1","first-order administrative division","6295630|6255147|KH|07","Earth|Asia|Cambodia|Kandal","1","1"
"32034","32034_1831095","4","1831095","Kandal","11.41667","105.0","ADM1","first-order administrative division","6295630|6255147|KH|07","Earth|Asia|Cambodia|Kandal","1","1"
"32045","32045_1831095","4","1831095","Kandal","11.41667","105.0","ADM1","first-order administrative division","6295630|6255147|KH|07","Earth|Asia|Cambodia|Kandal","1","1"
"33058","33058_1831095","4","1831095","Kandal","11.41667","105.0","ADM1","first-order administrative division","6295630|6255147|KH|07","Earth|Asia|Cambodia|Kandal","1","1"
"33158","33158_1831095","4","1831095","Kandal","11.41667","105.0","ADM1","first-order administrative division","6295630|6255147|KH|07","Earth|Asia|Cambodia|Kandal","1","1"
"33064","33064_1831095","4","1831095","Kandal","11.41667","105.0","ADM1","first-order administrative division","6295630|6255147|KH|07","Earth|Asia|Cambodia|Kandal","1","1"
"38742","38742_1831095","4","1831095","Kandal","11.41667","105.0","ADM1","first-order administrative division","6295630|6255147|KH|07","Earth|Asia|Cambodia|Kandal","1","1"
"38742","38742_1830937","4","1830937","Kep","10.5125","104.31667","ADM1","first-order administrative division","6295630|6255147|KH|26","Earth|Asia|Cambodia|Kep","1","1"
"33822","33822_1656538","4","1656538","Khammouan","17.5","105.33333","ADM1","first-order administrative division","6295630|6255147|LA|15","Earth|Asia|Laos|Khammouan","1","1"
"33693","33693_1904616","4","1904616","Khouèng Bokèo","20.5","100.5","ADM1","first-order administrative division","6295630|6255147|LA|22","Earth|Asia|Laos|Khouèng Bokèo","1","2"
"33700","33700_1904616","4","1904616","Khouèng Bokèo","20.5","100.5","ADM1","first-order administrative division","6295630|6255147|LA|22","Earth|Asia|Laos|Khouèng Bokèo","1","1"
"33815","33815_1654491","4","1654491","Khouèng Oudômxai","20.16667","101.5","ADM1","first-order administrative division","6295630|6255147|LA|07","Earth|Asia|Laos|Khouèng Oudômxai","1","1"
"33810","33810_1654491","4","1654491","Khouèng Oudômxai","20.16667","101.5","ADM1","first-order administrative division","6295630|6255147|LA|07","Earth|Asia|Laos|Khouèng Oudômxai","1","1"
"33700","33700_1654491","4","1654491","Khouèng Oudômxai","20.16667","101.5","ADM1","first-order administrative division","6295630|6255147|LA|07","Earth|Asia|Laos|Khouèng Oudômxai","1","1"
"33768","33768_1654491","4","1654491","Khouèng Oudômxai","20.16667","101.5","ADM1","first-order administrative division","6295630|6255147|LA|07","Earth|Asia|Laos|Khouèng Oudômxai","1","1"
"38459","38459_1653893","4","1653893","Khouèng Phôngsali","21.75","102.33333","ADM1","first-order administrative division","6295630|6255147|LA|18","Earth|Asia|Laos|Khouèng Phôngsali","1","1"
"35714","35714_1653893","4","1653893","Khouèng Phôngsali","21.75","102.33333","ADM1","first-order administrative division","6295630|6255147|LA|18","Earth|Asia|Laos|Khouèng Phôngsali","1","1"
"33769","33769_1653893","4","1653893","Khouèng Phôngsali","21.75","102.33333","ADM1","first-order administrative division","6295630|6255147|LA|18","Earth|Asia|Laos|Khouèng Phôngsali","1","1"
"33700","33700_1653893","4","1653893","Khouèng Phôngsali","21.75","102.33333","ADM1","first-order administrative division","6295630|6255147|LA|18","Earth|Asia|Laos|Khouèng Phôngsali","1","1"
"35709","35709_1653315","4","1653315","Khouèng Savannakhét","16.5","105.75","ADM1","first-order administrative division","6295630|6255147|LA|20","Earth|Asia|Laos|Khouèng Savannakhét","1","1"
"35709","35709_1904615","4","1904615","Khouèng Xékong","15.5","107.0","ADM1","first-order administrative division","6295630|6255147|LA|26","Earth|Asia|Laos|Khouèng Xékong","1","1"
"32080","32080_1831037","4","1831037","Koh Kong","11.5","103.5","ADM1","first-order administrative division","6295630|6255147|KH|08","Earth|Asia|Cambodia|Koh Kong","1","1"
"32192","32192_1831037","4","1831037","Koh Kong","11.5","103.5","ADM1","first-order administrative division","6295630|6255147|KH|08","Earth|Asia|Cambodia|Koh Kong","1","1"
"33123","33123_1831037","4","1831037","Koh Kong","11.5","103.5","ADM1","first-order administrative division","6295630|6255147|KH|08","Earth|Asia|Cambodia|Koh Kong","1","1"
